{
"type": "FeatureCollection",
"name": "restSurroundEffect",
"crs": { "type": "name", "properties": { "name": "urn:ogc:def:crs:OGC:1.3:CRS84" } },
"features": [
{ "type": "Feature", "properties": { "placekey": "222-222@628-p7v-hkf", "totalVisitors": 305.0 }, "geometry": { "type": "Point", "coordinates": [ -75.063043, 40.055041 ] } },
{ "type": "Feature", "properties": { "placekey": "222-222@628-p7w-pqf", "totalVisitors": 5143.0 }, "geometry": { "type": "Point", "coordinates": [ -75.053372, 40.044475 ] } },
{ "type": "Feature", "properties": { "placekey": "222-222@628-p7z-7kf", "totalVisitors": 2776.0 }, "geometry": { "type": "Point", "coordinates": [ -75.08469, 40.062355 ] } },
{ "type": "Feature", "properties": { "placekey": "222-222@628-p8t-6c5", "totalVisitors": 5537.0 }, "geometry": { "type": "Point", "coordinates": [ -74.965267, 40.087623 ] } },
{ "type": "Feature", "properties": { "placekey": "222-222@628-p8v-7bk", "totalVisitors": 1948.0 }, "geometry": { "type": "Point", "coordinates": [ -74.96714, 40.087934 ] } },
{ "type": "Feature", "properties": { "placekey": "222-222@628-p9k-nbk", "totalVisitors": 2375.0 }, "geometry": { "type": "Point", "coordinates": [ -75.015594, 40.095406 ] } },
{ "type": "Feature", "properties": { "placekey": "222-222@628-p9q-ht9", "totalVisitors": 976.0 }, "geometry": { "type": "Point", "coordinates": [ -75.027369, 40.07798 ] } },
{ "type": "Feature", "properties": { "placekey": "222-222@628-pg4-qj9", "totalVisitors": 441.0 }, "geometry": { "type": "Point", "coordinates": [ -75.158276, 40.04667 ] } },
{ "type": "Feature", "properties": { "placekey": "222-222@628-pgh-j9z", "totalVisitors": 5588.0 }, "geometry": { "type": "Point", "coordinates": [ -75.166804, 40.010265 ] } },
{ "type": "Feature", "properties": { "placekey": "222-222@628-pgh-x3q", "totalVisitors": 650.0 }, "geometry": { "type": "Point", "coordinates": [ -75.147207, 39.984971 ] } },
{ "type": "Feature", "properties": { "placekey": "222-222@628-pgj-2ff", "totalVisitors": 678.0 }, "geometry": { "type": "Point", "coordinates": [ -75.154774, 39.979387 ] } },
{ "type": "Feature", "properties": { "placekey": "222-222@628-ph5-qcq", "totalVisitors": 980.0 }, "geometry": { "type": "Point", "coordinates": [ -75.239359, 39.982305 ] } },
{ "type": "Feature", "properties": { "placekey": "222-222@628-ph8-qpv", "totalVisitors": 3270.0 }, "geometry": { "type": "Point", "coordinates": [ -75.26859, 39.980066 ] } },
{ "type": "Feature", "properties": { "placekey": "222-222@628-pj6-jsq", "totalVisitors": 31.0 }, "geometry": { "type": "Point", "coordinates": [ -75.117134, 40.045112 ] } },
{ "type": "Feature", "properties": { "placekey": "222-222@628-pm6-2x5", "totalVisitors": 3489.0 }, "geometry": { "type": "Point", "coordinates": [ -75.140855, 39.918938 ] } },
{ "type": "Feature", "properties": { "placekey": "222-222@628-pm6-jgk", "totalVisitors": 1413.0 }, "geometry": { "type": "Point", "coordinates": [ -75.145001, 39.92105 ] } },
{ "type": "Feature", "properties": { "placekey": "222-222@628-pmb-87q", "totalVisitors": 1098.0 }, "geometry": { "type": "Point", "coordinates": [ -75.160916, 39.953616 ] } },
{ "type": "Feature", "properties": { "placekey": "222-222@628-pmb-9s5", "totalVisitors": 651.0 }, "geometry": { "type": "Point", "coordinates": [ -75.164523, 39.955328 ] } },
{ "type": "Feature", "properties": { "placekey": "222-222@628-pmf-835", "totalVisitors": 1727.0 }, "geometry": { "type": "Point", "coordinates": [ -75.188587, 39.95362 ] } },
{ "type": "Feature", "properties": { "placekey": "222-222@628-pmf-8vz", "totalVisitors": 570.0 }, "geometry": { "type": "Point", "coordinates": [ -75.192644, 39.953047 ] } },
{ "type": "Feature", "properties": { "placekey": "222-222@628-pmf-k2k", "totalVisitors": 2767.0 }, "geometry": { "type": "Point", "coordinates": [ -75.174736, 39.954066 ] } },
{ "type": "Feature", "properties": { "placekey": "222-222@628-pnw-nwk", "totalVisitors": 1235.0 }, "geometry": { "type": "Point", "coordinates": [ -75.135058, 39.971727 ] } },
{ "type": "Feature", "properties": { "placekey": "222-222@628-pp2-pjv", "totalVisitors": 4171.0 }, "geometry": { "type": "Point", "coordinates": [ -75.09573, 39.993581 ] } },
{ "type": "Feature", "properties": { "placekey": "222-222@628-pp2-pvz", "totalVisitors": 2584.0 }, "geometry": { "type": "Point", "coordinates": [ -75.094958, 39.994039 ] } },
{ "type": "Feature", "properties": { "placekey": "222-222@628-pp2-s89", "totalVisitors": 6528.0 }, "geometry": { "type": "Point", "coordinates": [ -75.093622, 39.99465 ] } },
{ "type": "Feature", "properties": { "placekey": "222-222@63s-dvp-mrk", "totalVisitors": 271.0 }, "geometry": { "type": "Point", "coordinates": [ -75.234637, 39.941427 ] } },
{ "type": "Feature", "properties": { "placekey": "222-222@63s-dvr-7nq", "totalVisitors": 1150.0 }, "geometry": { "type": "Point", "coordinates": [ -75.230768, 39.928385 ] } },
{ "type": "Feature", "properties": { "placekey": "222-222@63s-dvw-skf", "totalVisitors": 3409.0 }, "geometry": { "type": "Point", "coordinates": [ -75.232342, 39.965987 ] } },
{ "type": "Feature", "properties": { "placekey": "222-222@63s-dvy-jgk", "totalVisitors": 1463.0 }, "geometry": { "type": "Point", "coordinates": [ -75.203063, 39.952783 ] } },
{ "type": "Feature", "properties": { "placekey": "222-222@63s-dvy-ndv", "totalVisitors": 1275.0 }, "geometry": { "type": "Point", "coordinates": [ -75.200256, 39.955736 ] } },
{ "type": "Feature", "properties": { "placekey": "222-222@63s-dwd-sdv", "totalVisitors": 554.0 }, "geometry": { "type": "Point", "coordinates": [ -75.177626, 39.890038 ] } },
{ "type": "Feature", "properties": { "placekey": "222-223@628-p85-bzf", "totalVisitors": 1536.0 }, "geometry": { "type": "Point", "coordinates": [ -75.044427, 40.057787 ] } },
{ "type": "Feature", "properties": { "placekey": "222-223@628-pfy-h3q", "totalVisitors": 269.0 }, "geometry": { "type": "Point", "coordinates": [ -75.231987, 40.044179 ] } },
{ "type": "Feature", "properties": { "placekey": "222-223@628-pfz-rhq", "totalVisitors": 618.0 }, "geometry": { "type": "Point", "coordinates": [ -75.209408, 40.027472 ] } },
{ "type": "Feature", "properties": { "placekey": "222-223@628-ph8-qpv", "totalVisitors": 2698.0 }, "geometry": { "type": "Point", "coordinates": [ -75.269293, 39.979849 ] } },
{ "type": "Feature", "properties": { "placekey": "222-223@628-pm9-fzz", "totalVisitors": 104.0 }, "geometry": { "type": "Point", "coordinates": [ -75.185011, 39.918223 ] } },
{ "type": "Feature", "properties": { "placekey": "222-223@628-pm9-s3q", "totalVisitors": 404.0 }, "geometry": { "type": "Point", "coordinates": [ -75.152521, 39.9497 ] } },
{ "type": "Feature", "properties": { "placekey": "222-223@628-pm9-sdv", "totalVisitors": 5447.0 }, "geometry": { "type": "Point", "coordinates": [ -75.150944, 39.950627 ] } },
{ "type": "Feature", "properties": { "placekey": "222-223@628-pm9-zvf", "totalVisitors": 123.0 }, "geometry": { "type": "Point", "coordinates": [ -75.150883, 39.940282 ] } },
{ "type": "Feature", "properties": { "placekey": "222-223@628-pmf-hkf", "totalVisitors": 422.0 }, "geometry": { "type": "Point", "coordinates": [ -75.173571, 39.954138 ] } },
{ "type": "Feature", "properties": { "placekey": "222-223@628-pmf-n5z", "totalVisitors": 64.0 }, "geometry": { "type": "Point", "coordinates": [ -75.168495, 39.954715 ] } },
{ "type": "Feature", "properties": { "placekey": "222-223@628-pnw-xdv", "totalVisitors": 91.0 }, "geometry": { "type": "Point", "coordinates": [ -75.148737, 39.970169 ] } },
{ "type": "Feature", "properties": { "placekey": "222-224@628-p82-3wk", "totalVisitors": 4.0 }, "geometry": { "type": "Point", "coordinates": [ -75.091757, 40.044547 ] } },
{ "type": "Feature", "properties": { "placekey": "222-224@628-pgj-2ff", "totalVisitors": 646.0 }, "geometry": { "type": "Point", "coordinates": [ -75.155043, 39.979339 ] } },
{ "type": "Feature", "properties": { "placekey": "222-224@628-pgj-n5z", "totalVisitors": 1529.0 }, "geometry": { "type": "Point", "coordinates": [ -75.144052, 39.992848 ] } },
{ "type": "Feature", "properties": { "placekey": "222-224@628-pmb-yn5", "totalVisitors": 2107.0 }, "geometry": { "type": "Point", "coordinates": [ -75.153631, 39.95343 ] } },
{ "type": "Feature", "properties": { "placekey": "222-224@628-pmf-hkf", "totalVisitors": 726.0 }, "geometry": { "type": "Point", "coordinates": [ -75.173545, 39.953985 ] } },
{ "type": "Feature", "properties": { "placekey": "222-224@628-pmf-vvf", "totalVisitors": 10253.0 }, "geometry": { "type": "Point", "coordinates": [ -75.182324, 39.955579 ] } },
{ "type": "Feature", "properties": { "placekey": "222-224@628-pnw-xdv", "totalVisitors": 24.0 }, "geometry": { "type": "Point", "coordinates": [ -75.148759, 39.970181 ] } },
{ "type": "Feature", "properties": { "placekey": "222-224@63s-dvy-mx5", "totalVisitors": 1078.0 }, "geometry": { "type": "Point", "coordinates": [ -75.199841, 39.95514 ] } },
{ "type": "Feature", "properties": { "placekey": "222-225@628-pgb-m49", "totalVisitors": 49.0 }, "geometry": { "type": "Point", "coordinates": [ -75.15482, 39.970497 ] } },
{ "type": "Feature", "properties": { "placekey": "222-225@628-pgj-n5z", "totalVisitors": 1478.0 }, "geometry": { "type": "Point", "coordinates": [ -75.144706, 39.992947 ] } },
{ "type": "Feature", "properties": { "placekey": "222-225@628-phd-h89", "totalVisitors": 2.0 }, "geometry": { "type": "Point", "coordinates": [ -75.222262, 40.00282 ] } },
{ "type": "Feature", "properties": { "placekey": "222-225@628-pj4-vcq", "totalVisitors": 2393.0 }, "geometry": { "type": "Point", "coordinates": [ -75.13519, 39.998705 ] } },
{ "type": "Feature", "properties": { "placekey": "222-225@628-pmb-8sq", "totalVisitors": 1216.0 }, "geometry": { "type": "Point", "coordinates": [ -75.158867, 39.951507 ] } },
{ "type": "Feature", "properties": { "placekey": "222-225@628-pmf-6x5", "totalVisitors": 10449.0 }, "geometry": { "type": "Point", "coordinates": [ -75.192694, 39.947713 ] } },
{ "type": "Feature", "properties": { "placekey": "222-225@63s-dwf-wkz", "totalVisitors": 66.0 }, "geometry": { "type": "Point", "coordinates": [ -75.240437, 39.902609 ] } },
{ "type": "Feature", "properties": { "placekey": "222-226@628-pgy-kcq", "totalVisitors": 117.0 }, "geometry": { "type": "Point", "coordinates": [ -75.235289, 40.062824 ] } },
{ "type": "Feature", "properties": { "placekey": "222-226@628-pmf-vvf", "totalVisitors": 512.0 }, "geometry": { "type": "Point", "coordinates": [ -75.181993, 39.955606 ] } },
{ "type": "Feature", "properties": { "placekey": "222-226@63s-dvw-vs5", "totalVisitors": 2.0 }, "geometry": { "type": "Point", "coordinates": [ -75.234218, 39.960744 ] } },
{ "type": "Feature", "properties": { "placekey": "222-227@628-pj7-st9", "totalVisitors": 506.0 }, "geometry": { "type": "Point", "coordinates": [ -75.096388, 40.016586 ] } },
{ "type": "Feature", "properties": { "placekey": "222-227@628-pnw-v4v", "totalVisitors": 2499.0 }, "geometry": { "type": "Point", "coordinates": [ -75.132833, 39.963875 ] } },
{ "type": "Feature", "properties": { "placekey": "222-228@628-pmf-vvf", "totalVisitors": 1718.0 }, "geometry": { "type": "Point", "coordinates": [ -75.182005, 39.955611 ] } },
{ "type": "Feature", "properties": { "placekey": "222-228@628-pnw-v4v", "totalVisitors": 306.0 }, "geometry": { "type": "Point", "coordinates": [ -75.132484, 39.963819 ] } },
{ "type": "Feature", "properties": { "placekey": "222-229@628-p9q-hqz", "totalVisitors": 3086.0 }, "geometry": { "type": "Point", "coordinates": [ -75.027394, 40.079591 ] } },
{ "type": "Feature", "properties": { "placekey": "222-229@628-pgj-2ff", "totalVisitors": 746.0 }, "geometry": { "type": "Point", "coordinates": [ -75.15524, 39.97914 ] } },
{ "type": "Feature", "properties": { "placekey": "222-22b@628-phd-q75", "totalVisitors": 136.0 }, "geometry": { "type": "Point", "coordinates": [ -75.214249, 40.002688 ] } },
{ "type": "Feature", "properties": { "placekey": "222-22f@628-pmf-n5z", "totalVisitors": 504.0 }, "geometry": { "type": "Point", "coordinates": [ -75.168458, 39.954543 ] } },
{ "type": "Feature", "properties": { "placekey": "222-22g@628-pgy-kj9", "totalVisitors": 120.0 }, "geometry": { "type": "Point", "coordinates": [ -75.236782, 40.06433 ] } },
{ "type": "Feature", "properties": { "placekey": "223-222@628-p7w-73q", "totalVisitors": 5109.0 }, "geometry": { "type": "Point", "coordinates": [ -75.060529, 40.05636 ] } },
{ "type": "Feature", "properties": { "placekey": "223-222@628-p7x-66k", "totalVisitors": 415.0 }, "geometry": { "type": "Point", "coordinates": [ -75.060109, 40.048315 ] } },
{ "type": "Feature", "properties": { "placekey": "223-222@628-p8h-qxq", "totalVisitors": 3834.0 }, "geometry": { "type": "Point", "coordinates": [ -75.050755, 40.022302 ] } },
{ "type": "Feature", "properties": { "placekey": "223-222@628-p8t-3nq", "totalVisitors": 4330.0 }, "geometry": { "type": "Point", "coordinates": [ -74.96509, 40.084019 ] } },
{ "type": "Feature", "properties": { "placekey": "223-222@628-p9k-ndv", "totalVisitors": 641.0 }, "geometry": { "type": "Point", "coordinates": [ -75.01663, 40.094242 ] } },
{ "type": "Feature", "properties": { "placekey": "223-222@628-p9m-gtv", "totalVisitors": 2325.0 }, "geometry": { "type": "Point", "coordinates": [ -74.993713, 40.08083 ] } },
{ "type": "Feature", "properties": { "placekey": "223-222@628-p9q-j5f", "totalVisitors": 1655.0 }, "geometry": { "type": "Point", "coordinates": [ -75.026955, 40.078699 ] } },
{ "type": "Feature", "properties": { "placekey": "223-222@628-p9q-whq", "totalVisitors": 1747.0 }, "geometry": { "type": "Point", "coordinates": [ -75.037171, 40.082088 ] } },
{ "type": "Feature", "properties": { "placekey": "223-222@628-pfw-s5z", "totalVisitors": 954.0 }, "geometry": { "type": "Point", "coordinates": [ -75.179912, 40.030374 ] } },
{ "type": "Feature", "properties": { "placekey": "223-222@628-pg9-xwk", "totalVisitors": 1683.0 }, "geometry": { "type": "Point", "coordinates": [ -75.160229, 39.966768 ] } },
{ "type": "Feature", "properties": { "placekey": "223-222@628-pgb-kcq", "totalVisitors": 704.0 }, "geometry": { "type": "Point", "coordinates": [ -75.159725, 39.971904 ] } },
{ "type": "Feature", "properties": { "placekey": "223-222@628-pgf-4jv", "totalVisitors": 1901.0 }, "geometry": { "type": "Point", "coordinates": [ -75.190756, 39.957412 ] } },
{ "type": "Feature", "properties": { "placekey": "223-222@628-pgj-4qf", "totalVisitors": 128.0 }, "geometry": { "type": "Point", "coordinates": [ -75.153323, 39.980895 ] } },
{ "type": "Feature", "properties": { "placekey": "223-222@628-pgj-gkz", "totalVisitors": 130.0 }, "geometry": { "type": "Point", "coordinates": [ -75.158278, 39.979202 ] } },
{ "type": "Feature", "properties": { "placekey": "223-222@628-pgj-grk", "totalVisitors": 813.0 }, "geometry": { "type": "Point", "coordinates": [ -75.155677, 39.980737 ] } },
{ "type": "Feature", "properties": { "placekey": "223-222@628-ph5-qfz", "totalVisitors": 1979.0 }, "geometry": { "type": "Point", "coordinates": [ -75.241702, 39.98308 ] } },
{ "type": "Feature", "properties": { "placekey": "223-222@628-phn-qj9", "totalVisitors": 1293.0 }, "geometry": { "type": "Point", "coordinates": [ -75.179266, 40.067861 ] } },
{ "type": "Feature", "properties": { "placekey": "223-222@628-pj2-q4v", "totalVisitors": 3671.0 }, "geometry": { "type": "Point", "coordinates": [ -75.112426, 40.011913 ] } },
{ "type": "Feature", "properties": { "placekey": "223-222@628-pm3-vxq", "totalVisitors": 438.0 }, "geometry": { "type": "Point", "coordinates": [ -75.167394, 39.926361 ] } },
{ "type": "Feature", "properties": { "placekey": "223-222@628-pm5-9pv", "totalVisitors": 2189.0 }, "geometry": { "type": "Point", "coordinates": [ -75.150009, 39.912513 ] } },
{ "type": "Feature", "properties": { "placekey": "223-222@628-pm6-2ff", "totalVisitors": 10559.0 }, "geometry": { "type": "Point", "coordinates": [ -75.140556, 39.918289 ] } },
{ "type": "Feature", "properties": { "placekey": "223-222@628-pm9-x3q", "totalVisitors": 3068.0 }, "geometry": { "type": "Point", "coordinates": [ -75.153481, 39.95067 ] } },
{ "type": "Feature", "properties": { "placekey": "223-222@628-pmc-v2k", "totalVisitors": 58.0 }, "geometry": { "type": "Point", "coordinates": [ -75.140666, 39.923461 ] } },
{ "type": "Feature", "properties": { "placekey": "223-222@628-pmf-835", "totalVisitors": 3765.0 }, "geometry": { "type": "Point", "coordinates": [ -75.189186, 39.954193 ] } },
{ "type": "Feature", "properties": { "placekey": "223-222@628-pmf-hnq", "totalVisitors": 446.0 }, "geometry": { "type": "Point", "coordinates": [ -75.173159, 39.952182 ] } },
{ "type": "Feature", "properties": { "placekey": "223-222@628-pmf-jgk", "totalVisitors": 456.0 }, "geometry": { "type": "Point", "coordinates": [ -75.167966, 39.951075 ] } },
{ "type": "Feature", "properties": { "placekey": "223-222@628-pmf-ty9", "totalVisitors": 2275.0 }, "geometry": { "type": "Point", "coordinates": [ -75.169697, 39.947768 ] } },
{ "type": "Feature", "properties": { "placekey": "223-222@628-pnw-jsq", "totalVisitors": 209.0 }, "geometry": { "type": "Point", "coordinates": [ -75.137024, 39.967428 ] } },
{ "type": "Feature", "properties": { "placekey": "223-222@628-pzp-2zf", "totalVisitors": 1919.0 }, "geometry": { "type": "Point", "coordinates": [ -75.012325, 40.131979 ] } },
{ "type": "Feature", "properties": { "placekey": "223-222@63s-dvq-y9z", "totalVisitors": 915.0 }, "geometry": { "type": "Point", "coordinates": [ -75.226248, 39.93105 ] } },
{ "type": "Feature", "properties": { "placekey": "223-223@628-p74-ct9", "totalVisitors": 747.0 }, "geometry": { "type": "Point", "coordinates": [ -75.025991, 40.041702 ] } },
{ "type": "Feature", "properties": { "placekey": "223-223@628-pgb-d7q", "totalVisitors": 3049.0 }, "geometry": { "type": "Point", "coordinates": [ -75.172957, 39.962306 ] } },
{ "type": "Feature", "properties": { "placekey": "223-223@628-pgj-4qf", "totalVisitors": 2633.0 }, "geometry": { "type": "Point", "coordinates": [ -75.153284, 39.980846 ] } },
{ "type": "Feature", "properties": { "placekey": "223-223@628-pj9-73q", "totalVisitors": 1957.0 }, "geometry": { "type": "Point", "coordinates": [ -75.143775, 40.044951 ] } },
{ "type": "Feature", "properties": { "placekey": "223-223@628-pnw-w8v", "totalVisitors": 145.0 }, "geometry": { "type": "Point", "coordinates": [ -75.136248, 39.963192 ] } },
{ "type": "Feature", "properties": { "placekey": "223-224@628-pmc-v75", "totalVisitors": 1894.0 }, "geometry": { "type": "Point", "coordinates": [ -75.142554, 39.923962 ] } },
{ "type": "Feature", "properties": { "placekey": "223-225@628-p77-bp9", "totalVisitors": 2002.0 }, "geometry": { "type": "Point", "coordinates": [ -74.984748, 40.064739 ] } },
{ "type": "Feature", "properties": { "placekey": "223-225@628-pj9-73q", "totalVisitors": 500.0 }, "geometry": { "type": "Point", "coordinates": [ -75.143877, 40.044956 ] } },
{ "type": "Feature", "properties": { "placekey": "223-229@628-pmf-n3q", "totalVisitors": 384.0 }, "geometry": { "type": "Point", "coordinates": [ -75.165892, 39.953446 ] } },
{ "type": "Feature", "properties": { "placekey": "223-22m@628-pmf-n3q", "totalVisitors": 22.0 }, "geometry": { "type": "Point", "coordinates": [ -75.165882, 39.953423 ] } },
{ "type": "Feature", "properties": { "placekey": "224-222@628-p7x-t9z", "totalVisitors": 4110.0 }, "geometry": { "type": "Point", "coordinates": [ -75.057526, 40.051349 ] } },
{ "type": "Feature", "properties": { "placekey": "224-222@628-p8d-k9f", "totalVisitors": 1125.0 }, "geometry": { "type": "Point", "coordinates": [ -75.093216, 40.006222 ] } },
{ "type": "Feature", "properties": { "placekey": "224-222@628-p9k-mrk", "totalVisitors": 2893.0 }, "geometry": { "type": "Point", "coordinates": [ -75.018034, 40.096618 ] } },
{ "type": "Feature", "properties": { "placekey": "224-222@628-p9p-qxq", "totalVisitors": 5441.0 }, "geometry": { "type": "Point", "coordinates": [ -75.029489, 40.102202 ] } },
{ "type": "Feature", "properties": { "placekey": "224-222@628-p9r-28v", "totalVisitors": 1805.0 }, "geometry": { "type": "Point", "coordinates": [ -75.033031, 40.074467 ] } },
{ "type": "Feature", "properties": { "placekey": "224-222@628-p9r-4vz", "totalVisitors": 1790.0 }, "geometry": { "type": "Point", "coordinates": [ -75.031225, 40.077481 ] } },
{ "type": "Feature", "properties": { "placekey": "224-222@628-pft-ygk", "totalVisitors": 4062.0 }, "geometry": { "type": "Point", "coordinates": [ -75.20598, 40.0295 ] } },
{ "type": "Feature", "properties": { "placekey": "224-222@628-pgb-k4v", "totalVisitors": 2151.0 }, "geometry": { "type": "Point", "coordinates": [ -75.158837, 39.972074 ] } },
{ "type": "Feature", "properties": { "placekey": "224-222@628-pgd-xdv", "totalVisitors": 47.0 }, "geometry": { "type": "Point", "coordinates": [ -75.191103, 39.966184 ] } },
{ "type": "Feature", "properties": { "placekey": "224-222@628-pgf-52k", "totalVisitors": 165.0 }, "geometry": { "type": "Point", "coordinates": [ -75.194854, 39.959356 ] } },
{ "type": "Feature", "properties": { "placekey": "224-222@628-pgf-6hq", "totalVisitors": 183.0 }, "geometry": { "type": "Point", "coordinates": [ -75.20737, 39.966585 ] } },
{ "type": "Feature", "properties": { "placekey": "224-222@628-pgh-gx5", "totalVisitors": 756.0 }, "geometry": { "type": "Point", "coordinates": [ -75.173703, 40.007958 ] } },
{ "type": "Feature", "properties": { "placekey": "224-222@628-pgh-vmk", "totalVisitors": 2887.0 }, "geometry": { "type": "Point", "coordinates": [ -75.155908, 39.982434 ] } },
{ "type": "Feature", "properties": { "placekey": "224-222@628-pgj-4sq", "totalVisitors": 1376.0 }, "geometry": { "type": "Point", "coordinates": [ -75.153441, 39.979564 ] } },
{ "type": "Feature", "properties": { "placekey": "224-222@628-pgj-wrk", "totalVisitors": 1045.0 }, "geometry": { "type": "Point", "coordinates": [ -75.155194, 39.993383 ] } },
{ "type": "Feature", "properties": { "placekey": "224-222@628-pgm-5cq", "totalVisitors": 169.0 }, "geometry": { "type": "Point", "coordinates": [ -75.186062, 40.007819 ] } },
{ "type": "Feature", "properties": { "placekey": "224-222@628-phy-b6k", "totalVisitors": 5148.0 }, "geometry": { "type": "Point", "coordinates": [ -75.119009, 40.012418 ] } },
{ "type": "Feature", "properties": { "placekey": "224-222@628-pj9-6x5", "totalVisitors": 3283.0 }, "geometry": { "type": "Point", "coordinates": [ -75.142895, 40.044629 ] } },
{ "type": "Feature", "properties": { "placekey": "224-222@628-pjf-p7q", "totalVisitors": 384.0 }, "geometry": { "type": "Point", "coordinates": [ -75.20654, 40.07705 ] } },
{ "type": "Feature", "properties": { "placekey": "224-222@628-pm3-xyv", "totalVisitors": 474.0 }, "geometry": { "type": "Point", "coordinates": [ -75.165237, 39.933932 ] } },
{ "type": "Feature", "properties": { "placekey": "224-222@628-pm5-9zz", "totalVisitors": 5099.0 }, "geometry": { "type": "Point", "coordinates": [ -75.148837, 39.914071 ] } },
{ "type": "Feature", "properties": { "placekey": "224-222@628-pmb-649", "totalVisitors": 516.0 }, "geometry": { "type": "Point", "coordinates": [ -75.159422, 39.947468 ] } },
{ "type": "Feature", "properties": { "placekey": "224-222@628-pmb-87q", "totalVisitors": 168.0 }, "geometry": { "type": "Point", "coordinates": [ -75.160898, 39.95365 ] } },
{ "type": "Feature", "properties": { "placekey": "224-222@628-pmf-y7q", "totalVisitors": 594.0 }, "geometry": { "type": "Point", "coordinates": [ -75.183415, 39.952403 ] } },
{ "type": "Feature", "properties": { "placekey": "224-222@628-pp5-2ff", "totalVisitors": 2144.0 }, "geometry": { "type": "Point", "coordinates": [ -75.135816, 39.99066 ] } },
{ "type": "Feature", "properties": { "placekey": "224-222@63s-dvw-mtv", "totalVisitors": 2911.0 }, "geometry": { "type": "Point", "coordinates": [ -75.225037, 39.958073 ] } },
{ "type": "Feature", "properties": { "placekey": "224-222@63s-dvy-pn5", "totalVisitors": 1281.0 }, "geometry": { "type": "Point", "coordinates": [ -75.202153, 39.954342 ] } },
{ "type": "Feature", "properties": { "placekey": "224-223@628-pgd-xdv", "totalVisitors": 66.0 }, "geometry": { "type": "Point", "coordinates": [ -75.19102, 39.966146 ] } },
{ "type": "Feature", "properties": { "placekey": "224-223@628-phd-94v", "totalVisitors": 7612.0 }, "geometry": { "type": "Point", "coordinates": [ -75.240132, 39.995006 ] } },
{ "type": "Feature", "properties": { "placekey": "224-223@628-pm8-rhq", "totalVisitors": 54.0 }, "geometry": { "type": "Point", "coordinates": [ -75.185371, 39.917106 ] } },
{ "type": "Feature", "properties": { "placekey": "224-223@628-pmb-v4v", "totalVisitors": 1503.0 }, "geometry": { "type": "Point", "coordinates": [ -75.144146, 39.949745 ] } },
{ "type": "Feature", "properties": { "placekey": "224-224@628-pgd-xdv", "totalVisitors": 36.0 }, "geometry": { "type": "Point", "coordinates": [ -75.191063, 39.96616 ] } },
{ "type": "Feature", "properties": { "placekey": "224-224@628-phd-94v", "totalVisitors": 362.0 }, "geometry": { "type": "Point", "coordinates": [ -75.238366, 39.994332 ] } },
{ "type": "Feature", "properties": { "placekey": "224-224@628-pm8-rhq", "totalVisitors": 3.0 }, "geometry": { "type": "Point", "coordinates": [ -75.185395, 39.917099 ] } },
{ "type": "Feature", "properties": { "placekey": "224-226@628-p9r-28v", "totalVisitors": 1856.0 }, "geometry": { "type": "Point", "coordinates": [ -75.033698, 40.073794 ] } },
{ "type": "Feature", "properties": { "placekey": "224-226@628-pgb-grk", "totalVisitors": 466.0 }, "geometry": { "type": "Point", "coordinates": [ -75.174167, 39.962927 ] } },
{ "type": "Feature", "properties": { "placekey": "224-226@628-pm8-rhq", "totalVisitors": 4.0 }, "geometry": { "type": "Point", "coordinates": [ -75.185379, 39.917097 ] } },
{ "type": "Feature", "properties": { "placekey": "224-227@628-pgd-xdv", "totalVisitors": 159.0 }, "geometry": { "type": "Point", "coordinates": [ -75.191061, 39.96616 ] } },
{ "type": "Feature", "properties": { "placekey": "224-227@628-pm8-rhq", "totalVisitors": 13.0 }, "geometry": { "type": "Point", "coordinates": [ -75.185394, 39.917104 ] } },
{ "type": "Feature", "properties": { "placekey": "225-222@628-p7b-h5z", "totalVisitors": 1419.0 }, "geometry": { "type": "Point", "coordinates": [ -75.004237, 40.054575 ] } },
{ "type": "Feature", "properties": { "placekey": "225-222@628-p85-7nq", "totalVisitors": 835.0 }, "geometry": { "type": "Point", "coordinates": [ -75.047895, 40.056919 ] } },
{ "type": "Feature", "properties": { "placekey": "225-222@628-p8j-d5f", "totalVisitors": 1092.0 }, "geometry": { "type": "Point", "coordinates": [ -75.039989, 40.036858 ] } },
{ "type": "Feature", "properties": { "placekey": "225-222@628-pft-zpv", "totalVisitors": 2774.0 }, "geometry": { "type": "Point", "coordinates": [ -75.211174, 40.030371 ] } },
{ "type": "Feature", "properties": { "placekey": "225-222@628-pg3-x89", "totalVisitors": 3251.0 }, "geometry": { "type": "Point", "coordinates": [ -75.174279, 40.036683 ] } },
{ "type": "Feature", "properties": { "placekey": "225-222@628-pg4-fj9", "totalVisitors": 2219.0 }, "geometry": { "type": "Point", "coordinates": [ -75.179055, 40.03211 ] } },
{ "type": "Feature", "properties": { "placekey": "225-222@628-pg4-gzf", "totalVisitors": 1746.0 }, "geometry": { "type": "Point", "coordinates": [ -75.180707, 40.032964 ] } },
{ "type": "Feature", "properties": { "placekey": "225-222@628-pgb-kcq", "totalVisitors": 1769.0 }, "geometry": { "type": "Point", "coordinates": [ -75.159902, 39.971722 ] } },
{ "type": "Feature", "properties": { "placekey": "225-222@628-pgh-c3q", "totalVisitors": 1498.0 }, "geometry": { "type": "Point", "coordinates": [ -75.15371, 39.999773 ] } },
{ "type": "Feature", "properties": { "placekey": "225-222@628-pgj-4sq", "totalVisitors": 3323.0 }, "geometry": { "type": "Point", "coordinates": [ -75.153609, 39.979521 ] } },
{ "type": "Feature", "properties": { "placekey": "225-222@628-phq-2ff", "totalVisitors": 960.0 }, "geometry": { "type": "Point", "coordinates": [ -75.164325, 40.058515 ] } },
{ "type": "Feature", "properties": { "placekey": "225-222@628-pj9-6x5", "totalVisitors": 1376.0 }, "geometry": { "type": "Point", "coordinates": [ -75.143166, 40.044247 ] } },
{ "type": "Feature", "properties": { "placekey": "225-222@628-pm7-3yv", "totalVisitors": 1044.0 }, "geometry": { "type": "Point", "coordinates": [ -75.187838, 39.921816 ] } },
{ "type": "Feature", "properties": { "placekey": "225-222@628-pm9-fzz", "totalVisitors": 1113.0 }, "geometry": { "type": "Point", "coordinates": [ -75.185792, 39.91594 ] } },
{ "type": "Feature", "properties": { "placekey": "225-222@628-pm9-wp9", "totalVisitors": 179.0 }, "geometry": { "type": "Point", "coordinates": [ -75.146278, 39.949971 ] } },
{ "type": "Feature", "properties": { "placekey": "225-222@628-pmf-hdv", "totalVisitors": 698.0 }, "geometry": { "type": "Point", "coordinates": [ -75.172414, 39.953693 ] } },
{ "type": "Feature", "properties": { "placekey": "225-222@628-pmf-hqz", "totalVisitors": 1454.0 }, "geometry": { "type": "Point", "coordinates": [ -75.171018, 39.954112 ] } },
{ "type": "Feature", "properties": { "placekey": "225-222@628-pmf-jgk", "totalVisitors": 1151.0 }, "geometry": { "type": "Point", "coordinates": [ -75.167447, 39.950661 ] } },
{ "type": "Feature", "properties": { "placekey": "225-222@63s-dvp-bff", "totalVisitors": 864.0 }, "geometry": { "type": "Point", "coordinates": [ -75.239426, 39.945604 ] } },
{ "type": "Feature", "properties": { "placekey": "225-222@63s-dvy-pn5", "totalVisitors": 2011.0 }, "geometry": { "type": "Point", "coordinates": [ -75.202337, 39.954367 ] } },
{ "type": "Feature", "properties": { "placekey": "225-222@63s-dvz-2hq", "totalVisitors": 1074.0 }, "geometry": { "type": "Point", "coordinates": [ -75.208453, 39.955452 ] } },
{ "type": "Feature", "properties": { "placekey": "225-223@628-pgd-zcq", "totalVisitors": 500.0 }, "geometry": { "type": "Point", "coordinates": [ -75.192799, 39.958342 ] } },
{ "type": "Feature", "properties": { "placekey": "225-223@628-pgh-c3q", "totalVisitors": 1458.0 }, "geometry": { "type": "Point", "coordinates": [ -75.153727, 39.999771 ] } },
{ "type": "Feature", "properties": { "placekey": "225-223@628-pgh-gff", "totalVisitors": 880.0 }, "geometry": { "type": "Point", "coordinates": [ -75.176591, 40.011075 ] } },
{ "type": "Feature", "properties": { "placekey": "225-223@628-pm7-3yv", "totalVisitors": 1007.0 }, "geometry": { "type": "Point", "coordinates": [ -75.187831, 39.921846 ] } },
{ "type": "Feature", "properties": { "placekey": "225-223@628-pmb-8n5", "totalVisitors": 668.0 }, "geometry": { "type": "Point", "coordinates": [ -75.156618, 39.951212 ] } },
{ "type": "Feature", "properties": { "placekey": "225-223@628-pmf-hkf", "totalVisitors": 438.0 }, "geometry": { "type": "Point", "coordinates": [ -75.173908, 39.953409 ] } },
{ "type": "Feature", "properties": { "placekey": "226-222@628-p75-kj9", "totalVisitors": 740.0 }, "geometry": { "type": "Point", "coordinates": [ -75.028613, 40.057165 ] } },
{ "type": "Feature", "properties": { "placekey": "226-222@628-p7w-7qz", "totalVisitors": 1564.0 }, "geometry": { "type": "Point", "coordinates": [ -75.055584, 40.061876 ] } },
{ "type": "Feature", "properties": { "placekey": "226-222@628-p7x-5vf", "totalVisitors": 1547.0 }, "geometry": { "type": "Point", "coordinates": [ -75.061751, 40.048428 ] } },
{ "type": "Feature", "properties": { "placekey": "226-222@628-p86-gx5", "totalVisitors": 4411.0 }, "geometry": { "type": "Point", "coordinates": [ -75.084375, 40.074102 ] } },
{ "type": "Feature", "properties": { "placekey": "226-222@628-pfy-5zz", "totalVisitors": 141.0 }, "geometry": { "type": "Point", "coordinates": [ -75.22728, 40.044085 ] } },
{ "type": "Feature", "properties": { "placekey": "226-222@628-pfz-ch5", "totalVisitors": 844.0 }, "geometry": { "type": "Point", "coordinates": [ -75.220172, 40.023398 ] } },
{ "type": "Feature", "properties": { "placekey": "226-222@628-pg4-fj9", "totalVisitors": 1059.0 }, "geometry": { "type": "Point", "coordinates": [ -75.178548, 40.032488 ] } },
{ "type": "Feature", "properties": { "placekey": "226-222@628-pgd-zvf", "totalVisitors": 75.0 }, "geometry": { "type": "Point", "coordinates": [ -75.191884, 39.955507 ] } },
{ "type": "Feature", "properties": { "placekey": "226-222@628-pgh-v4v", "totalVisitors": 5239.0 }, "geometry": { "type": "Point", "coordinates": [ -75.156032, 39.985226 ] } },
{ "type": "Feature", "properties": { "placekey": "226-222@628-pj4-3qz", "totalVisitors": 239.0 }, "geometry": { "type": "Point", "coordinates": [ -75.148496, 40.017536 ] } },
{ "type": "Feature", "properties": { "placekey": "226-222@628-pj8-fj9", "totalVisitors": 1280.0 }, "geometry": { "type": "Point", "coordinates": [ -75.084276, 40.031024 ] } },
{ "type": "Feature", "properties": { "placekey": "226-222@628-pm9-t9z", "totalVisitors": 3724.0 }, "geometry": { "type": "Point", "coordinates": [ -75.154413, 39.948251 ] } },
{ "type": "Feature", "properties": { "placekey": "226-222@628-pmb-8vz", "totalVisitors": 671.0 }, "geometry": { "type": "Point", "coordinates": [ -75.158243, 39.95095 ] } },
{ "type": "Feature", "properties": { "placekey": "226-222@628-pmf-jd9", "totalVisitors": 118.0 }, "geometry": { "type": "Point", "coordinates": [ -75.16924, 39.95186 ] } },
{ "type": "Feature", "properties": { "placekey": "226-222@628-pmf-sbk", "totalVisitors": 846.0 }, "geometry": { "type": "Point", "coordinates": [ -75.166927, 39.947514 ] } },
{ "type": "Feature", "properties": { "placekey": "226-222@628-pnw-xdv", "totalVisitors": 595.0 }, "geometry": { "type": "Point", "coordinates": [ -75.148624, 39.970677 ] } },
{ "type": "Feature", "properties": { "placekey": "226-222@628-pnx-9s5", "totalVisitors": 258.0 }, "geometry": { "type": "Point", "coordinates": [ -75.12909, 39.972307 ] } },
{ "type": "Feature", "properties": { "placekey": "226-222@628-pp2-fcq", "totalVisitors": 632.0 }, "geometry": { "type": "Point", "coordinates": [ -75.08982, 39.99638 ] } },
{ "type": "Feature", "properties": { "placekey": "226-222@628-pp2-qzz", "totalVisitors": 4582.0 }, "geometry": { "type": "Point", "coordinates": [ -75.096856, 39.993907 ] } },
{ "type": "Feature", "properties": { "placekey": "226-222@63s-dvy-k9f", "totalVisitors": 1878.0 }, "geometry": { "type": "Point", "coordinates": [ -75.198234, 39.950979 ] } },
{ "type": "Feature", "properties": { "placekey": "226-223@628-pmb-66k", "totalVisitors": 71.0 }, "geometry": { "type": "Point", "coordinates": [ -75.159963, 39.948958 ] } },
{ "type": "Feature", "properties": { "placekey": "226-223@628-pmf-jjv", "totalVisitors": 1097.0 }, "geometry": { "type": "Point", "coordinates": [ -75.170475, 39.952166 ] } },
{ "type": "Feature", "properties": { "placekey": "226-223@628-pnx-9s5", "totalVisitors": 21.0 }, "geometry": { "type": "Point", "coordinates": [ -75.129061, 39.972284 ] } },
{ "type": "Feature", "properties": { "placekey": "226-223@63s-dvy-zpv", "totalVisitors": 486.0 }, "geometry": { "type": "Point", "coordinates": [ -75.209056, 39.957784 ] } },
{ "type": "Feature", "properties": { "placekey": "226-224@628-pj6-6hq", "totalVisitors": 220.0 }, "geometry": { "type": "Point", "coordinates": [ -75.109486, 40.042687 ] } },
{ "type": "Feature", "properties": { "placekey": "226-227@628-pnw-n89", "totalVisitors": 249.0 }, "geometry": { "type": "Point", "coordinates": [ -75.139861, 39.966943 ] } },
{ "type": "Feature", "properties": { "placekey": "226-22b@628-pj6-6hq", "totalVisitors": 43.0 }, "geometry": { "type": "Point", "coordinates": [ -75.109086, 40.042523 ] } },
{ "type": "Feature", "properties": { "placekey": "226-22d@628-pj6-6hq", "totalVisitors": 5.0 }, "geometry": { "type": "Point", "coordinates": [ -75.110224, 40.042478 ] } },
{ "type": "Feature", "properties": { "placekey": "226-22f@628-pj6-6hq", "totalVisitors": 11.0 }, "geometry": { "type": "Point", "coordinates": [ -75.110197, 40.042506 ] } },
{ "type": "Feature", "properties": { "placekey": "226-22g@628-pj6-6hq", "totalVisitors": 2.0 }, "geometry": { "type": "Point", "coordinates": [ -75.109141, 40.04253 ] } },
{ "type": "Feature", "properties": { "placekey": "227-222@628-p7w-c89", "totalVisitors": 464.0 }, "geometry": { "type": "Point", "coordinates": [ -75.068775, 40.068183 ] } },
{ "type": "Feature", "properties": { "placekey": "227-222@628-pfz-pjv", "totalVisitors": 180.0 }, "geometry": { "type": "Point", "coordinates": [ -75.209026, 40.022386 ] } },
{ "type": "Feature", "properties": { "placekey": "227-222@628-pg9-zfz", "totalVisitors": 625.0 }, "geometry": { "type": "Point", "coordinates": [ -75.163748, 39.95846 ] } },
{ "type": "Feature", "properties": { "placekey": "227-222@628-pm4-gtv", "totalVisitors": 246.0 }, "geometry": { "type": "Point", "coordinates": [ -75.169152, 39.924749 ] } },
{ "type": "Feature", "properties": { "placekey": "227-222@628-pm7-mc5", "totalVisitors": 2460.0 }, "geometry": { "type": "Point", "coordinates": [ -75.189771, 39.93206 ] } },
{ "type": "Feature", "properties": { "placekey": "227-222@628-pm9-dqf", "totalVisitors": 845.0 }, "geometry": { "type": "Point", "coordinates": [ -75.181462, 39.917844 ] } },
{ "type": "Feature", "properties": { "placekey": "227-222@628-pm9-wp9", "totalVisitors": 723.0 }, "geometry": { "type": "Point", "coordinates": [ -75.146177, 39.950065 ] } },
{ "type": "Feature", "properties": { "placekey": "227-222@628-pmb-8vz", "totalVisitors": 6037.0 }, "geometry": { "type": "Point", "coordinates": [ -75.158373, 39.950371 ] } },
{ "type": "Feature", "properties": { "placekey": "227-222@628-pmf-2c5", "totalVisitors": 754.0 }, "geometry": { "type": "Point", "coordinates": [ -75.175538, 39.943084 ] } },
{ "type": "Feature", "properties": { "placekey": "227-222@628-pnx-4jv", "totalVisitors": 660.0 }, "geometry": { "type": "Point", "coordinates": [ -75.144194, 39.961407 ] } },
{ "type": "Feature", "properties": { "placekey": "227-222@628-pp2-6x5", "totalVisitors": 1155.0 }, "geometry": { "type": "Point", "coordinates": [ -75.101194, 39.984061 ] } },
{ "type": "Feature", "properties": { "placekey": "227-222@628-pp2-p5f", "totalVisitors": 508.0 }, "geometry": { "type": "Point", "coordinates": [ -75.095506, 39.995109 ] } },
{ "type": "Feature", "properties": { "placekey": "227-222@628-pp4-nwk", "totalVisitors": 1618.0 }, "geometry": { "type": "Point", "coordinates": [ -75.12553, 39.989586 ] } },
{ "type": "Feature", "properties": { "placekey": "227-222@628-pp5-pd9", "totalVisitors": 138.0 }, "geometry": { "type": "Point", "coordinates": [ -75.122871, 39.991591 ] } },
{ "type": "Feature", "properties": { "placekey": "227-222@63s-dvq-ygk", "totalVisitors": 55.0 }, "geometry": { "type": "Point", "coordinates": [ -75.225145, 39.931438 ] } },
{ "type": "Feature", "properties": { "placekey": "227-223@628-p75-ct9", "totalVisitors": 1309.0 }, "geometry": { "type": "Point", "coordinates": [ -75.015112, 40.04615 ] } },
{ "type": "Feature", "properties": { "placekey": "227-223@628-pfx-k75", "totalVisitors": 128.0 }, "geometry": { "type": "Point", "coordinates": [ -75.225663, 40.030602 ] } },
{ "type": "Feature", "properties": { "placekey": "227-223@628-pjf-kvf", "totalVisitors": 478.0 }, "geometry": { "type": "Point", "coordinates": [ -75.207434, 40.076863 ] } },
{ "type": "Feature", "properties": { "placekey": "227-223@628-pm6-jn5", "totalVisitors": 542.0 }, "geometry": { "type": "Point", "coordinates": [ -75.146804, 39.921827 ] } },
{ "type": "Feature", "properties": { "placekey": "227-223@628-pmf-2c5", "totalVisitors": 78.0 }, "geometry": { "type": "Point", "coordinates": [ -75.17554, 39.943081 ] } },
{ "type": "Feature", "properties": { "placekey": "227-223@628-pp2-pvz", "totalVisitors": 2973.0 }, "geometry": { "type": "Point", "coordinates": [ -75.094533, 39.993714 ] } },
{ "type": "Feature", "properties": { "placekey": "227-224@628-pmf-hnq", "totalVisitors": 13.0 }, "geometry": { "type": "Point", "coordinates": [ -75.172989, 39.952134 ] } },
{ "type": "Feature", "properties": { "placekey": "228-222@628-p8h-sqz", "totalVisitors": 344.0 }, "geometry": { "type": "Point", "coordinates": [ -75.040082, 40.022078 ] } },
{ "type": "Feature", "properties": { "placekey": "228-222@628-p8m-6rk", "totalVisitors": 3132.0 }, "geometry": { "type": "Point", "coordinates": [ -75.064359, 40.02749 ] } },
{ "type": "Feature", "properties": { "placekey": "228-222@628-p8t-6c5", "totalVisitors": 7053.0 }, "geometry": { "type": "Point", "coordinates": [ -74.964975, 40.088404 ] } },
{ "type": "Feature", "properties": { "placekey": "228-222@628-p9m-gtv", "totalVisitors": 1943.0 }, "geometry": { "type": "Point", "coordinates": [ -74.994015, 40.081029 ] } },
{ "type": "Feature", "properties": { "placekey": "228-222@628-pg9-54v", "totalVisitors": 1283.0 }, "geometry": { "type": "Point", "coordinates": [ -75.17957, 39.991295 ] } },
{ "type": "Feature", "properties": { "placekey": "228-222@628-pgf-ghq", "totalVisitors": 54.0 }, "geometry": { "type": "Point", "coordinates": [ -75.201248, 39.962747 ] } },
{ "type": "Feature", "properties": { "placekey": "228-222@628-ph6-p5f", "totalVisitors": 78.0 }, "geometry": { "type": "Point", "coordinates": [ -75.226016, 39.9773 ] } },
{ "type": "Feature", "properties": { "placekey": "228-222@628-phn-xkf", "totalVisitors": 1748.0 }, "geometry": { "type": "Point", "coordinates": [ -75.170911, 40.081002 ] } },
{ "type": "Feature", "properties": { "placekey": "228-222@628-pj3-wrk", "totalVisitors": 1925.0 }, "geometry": { "type": "Point", "coordinates": [ -75.148251, 40.024792 ] } },
{ "type": "Feature", "properties": { "placekey": "228-222@628-pj8-qs5", "totalVisitors": 1935.0 }, "geometry": { "type": "Point", "coordinates": [ -75.104813, 40.031545 ] } },
{ "type": "Feature", "properties": { "placekey": "228-222@628-pm9-fmk", "totalVisitors": 648.0 }, "geometry": { "type": "Point", "coordinates": [ -75.178672, 39.918125 ] } },
{ "type": "Feature", "properties": { "placekey": "228-222@628-pmb-6rk", "totalVisitors": 1431.0 }, "geometry": { "type": "Point", "coordinates": [ -75.165237, 39.949688 ] } },
{ "type": "Feature", "properties": { "placekey": "228-222@628-pmb-8n5", "totalVisitors": 2503.0 }, "geometry": { "type": "Point", "coordinates": [ -75.156644, 39.951208 ] } },
{ "type": "Feature", "properties": { "placekey": "228-222@628-pmd-vxq", "totalVisitors": 566.0 }, "geometry": { "type": "Point", "coordinates": [ -75.177968, 39.948772 ] } },
{ "type": "Feature", "properties": { "placekey": "228-222@628-pp4-qmk", "totalVisitors": 1422.0 }, "geometry": { "type": "Point", "coordinates": [ -75.119167, 39.978751 ] } },
{ "type": "Feature", "properties": { "placekey": "228-222@63s-dvp-bff", "totalVisitors": 447.0 }, "geometry": { "type": "Point", "coordinates": [ -75.238449, 39.945429 ] } },
{ "type": "Feature", "properties": { "placekey": "228-222@63s-dvy-p35", "totalVisitors": 1730.0 }, "geometry": { "type": "Point", "coordinates": [ -75.197783, 39.95373 ] } },
{ "type": "Feature", "properties": { "placekey": "228-223@628-pgb-7t9", "totalVisitors": 430.0 }, "geometry": { "type": "Point", "coordinates": [ -75.175327, 39.967166 ] } },
{ "type": "Feature", "properties": { "placekey": "228-226@628-p86-hbk", "totalVisitors": 132.0 }, "geometry": { "type": "Point", "coordinates": [ -75.085199, 40.075828 ] } },
{ "type": "Feature", "properties": { "placekey": "229-222@628-p9q-j5f", "totalVisitors": 3383.0 }, "geometry": { "type": "Point", "coordinates": [ -75.02664, 40.079208 ] } },
{ "type": "Feature", "properties": { "placekey": "229-222@628-pj3-cnq", "totalVisitors": 1274.0 }, "geometry": { "type": "Point", "coordinates": [ -75.149504, 40.018168 ] } },
{ "type": "Feature", "properties": { "placekey": "229-222@628-pm4-zvf", "totalVisitors": 2097.0 }, "geometry": { "type": "Point", "coordinates": [ -75.166565, 39.940697 ] } },
{ "type": "Feature", "properties": { "placekey": "229-222@628-pm8-djv", "totalVisitors": 1253.0 }, "geometry": { "type": "Point", "coordinates": [ -75.174607, 39.911493 ] } },
{ "type": "Feature", "properties": { "placekey": "229-222@628-pm9-s3q", "totalVisitors": 822.0 }, "geometry": { "type": "Point", "coordinates": [ -75.152153, 39.949525 ] } },
{ "type": "Feature", "properties": { "placekey": "229-222@628-pm9-wx5", "totalVisitors": 822.0 }, "geometry": { "type": "Point", "coordinates": [ -75.152962, 39.950848 ] } },
{ "type": "Feature", "properties": { "placekey": "229-222@628-pmb-6p9", "totalVisitors": 1025.0 }, "geometry": { "type": "Point", "coordinates": [ -75.16582, 39.951392 ] } },
{ "type": "Feature", "properties": { "placekey": "229-222@628-pmb-yqf", "totalVisitors": 910.0 }, "geometry": { "type": "Point", "coordinates": [ -75.155684, 39.955201 ] } },
{ "type": "Feature", "properties": { "placekey": "229-222@628-pmf-jd9", "totalVisitors": 566.0 }, "geometry": { "type": "Point", "coordinates": [ -75.168863, 39.95187 ] } },
{ "type": "Feature", "properties": { "placekey": "229-222@628-pmf-ks5", "totalVisitors": 1394.0 }, "geometry": { "type": "Point", "coordinates": [ -75.172319, 39.950784 ] } },
{ "type": "Feature", "properties": { "placekey": "229-222@628-pnw-k4v", "totalVisitors": 2774.0 }, "geometry": { "type": "Point", "coordinates": [ -75.135692, 39.968335 ] } },
{ "type": "Feature", "properties": { "placekey": "229-222@628-pp2-r49", "totalVisitors": 2723.0 }, "geometry": { "type": "Point", "coordinates": [ -75.097644, 39.992778 ] } },
{ "type": "Feature", "properties": { "placekey": "229-222@63s-dvy-pjv", "totalVisitors": 274.0 }, "geometry": { "type": "Point", "coordinates": [ -75.202596, 39.955177 ] } },
{ "type": "Feature", "properties": { "placekey": "229-224@628-ph6-9fz", "totalVisitors": 23.0 }, "geometry": { "type": "Point", "coordinates": [ -75.249112, 39.974713 ] } },
{ "type": "Feature", "properties": { "placekey": "229-224@628-pm4-xkf", "totalVisitors": 1906.0 }, "geometry": { "type": "Point", "coordinates": [ -75.166964, 39.938638 ] } },
{ "type": "Feature", "properties": { "placekey": "229-224@628-pnx-5mk", "totalVisitors": 501.0 }, "geometry": { "type": "Point", "coordinates": [ -75.14337, 39.96107 ] } },
{ "type": "Feature", "properties": { "placekey": "229-225@628-pm8-pgk", "totalVisitors": 2073.0 }, "geometry": { "type": "Point", "coordinates": [ -75.186866, 39.910232 ] } },
{ "type": "Feature", "properties": { "placekey": "229-227@628-p9k-nnq", "totalVisitors": 179.0 }, "geometry": { "type": "Point", "coordinates": [ -75.014873, 40.096111 ] } },
{ "type": "Feature", "properties": { "placekey": "22b-222@628-p86-gx5", "totalVisitors": 2053.0 }, "geometry": { "type": "Point", "coordinates": [ -75.084286, 40.073287 ] } },
{ "type": "Feature", "properties": { "placekey": "22b-222@628-p8t-vmk", "totalVisitors": 2224.0 }, "geometry": { "type": "Point", "coordinates": [ -74.964163, 40.089864 ] } },
{ "type": "Feature", "properties": { "placekey": "22b-222@628-p9w-q4v", "totalVisitors": 2171.0 }, "geometry": { "type": "Point", "coordinates": [ -75.016007, 40.12143 ] } },
{ "type": "Feature", "properties": { "placekey": "22b-222@628-pg4-w49", "totalVisitors": 1323.0 }, "geometry": { "type": "Point", "coordinates": [ -75.157976, 40.041081 ] } },
{ "type": "Feature", "properties": { "placekey": "22b-222@628-pgf-835", "totalVisitors": 559.0 }, "geometry": { "type": "Point", "coordinates": [ -75.211706, 39.969161 ] } },
{ "type": "Feature", "properties": { "placekey": "22b-222@628-ph8-rrk", "totalVisitors": 163.0 }, "geometry": { "type": "Point", "coordinates": [ -75.27366, 39.977493 ] } },
{ "type": "Feature", "properties": { "placekey": "22b-222@628-phq-2ff", "totalVisitors": 1079.0 }, "geometry": { "type": "Point", "coordinates": [ -75.164688, 40.058682 ] } },
{ "type": "Feature", "properties": { "placekey": "22b-222@628-pjk-3t9", "totalVisitors": 840.0 }, "geometry": { "type": "Point", "coordinates": [ -75.240446, 40.069724 ] } },
{ "type": "Feature", "properties": { "placekey": "22b-222@628-pm4-m49", "totalVisitors": 857.0 }, "geometry": { "type": "Point", "coordinates": [ -75.161547, 39.935545 ] } },
{ "type": "Feature", "properties": { "placekey": "22b-222@628-pm9-ffz", "totalVisitors": 1619.0 }, "geometry": { "type": "Point", "coordinates": [ -75.177313, 39.917069 ] } },
{ "type": "Feature", "properties": { "placekey": "22b-222@628-pmb-649", "totalVisitors": 612.0 }, "geometry": { "type": "Point", "coordinates": [ -75.158974, 39.947664 ] } },
{ "type": "Feature", "properties": { "placekey": "22b-222@628-pmd-vcq", "totalVisitors": 855.0 }, "geometry": { "type": "Point", "coordinates": [ -75.179572, 39.949988 ] } },
{ "type": "Feature", "properties": { "placekey": "22b-222@63s-dvy-p9z", "totalVisitors": 1573.0 }, "geometry": { "type": "Point", "coordinates": [ -75.202983, 39.953614 ] } },
{ "type": "Feature", "properties": { "placekey": "22b-223@628-pnw-n3q", "totalVisitors": 856.0 }, "geometry": { "type": "Point", "coordinates": [ -75.138447, 39.966208 ] } },
{ "type": "Feature", "properties": { "placekey": "22b-225@628-pg8-bp9", "totalVisitors": 64.0 }, "geometry": { "type": "Point", "coordinates": [ -75.183005, 39.984101 ] } },
{ "type": "Feature", "properties": { "placekey": "22c-222@628-p7z-7nq", "totalVisitors": 838.0 }, "geometry": { "type": "Point", "coordinates": [ -75.083812, 40.061205 ] } },
{ "type": "Feature", "properties": { "placekey": "22c-222@628-pgd-zfz", "totalVisitors": 3138.0 }, "geometry": { "type": "Point", "coordinates": [ -75.191374, 39.957183 ] } },
{ "type": "Feature", "properties": { "placekey": "22c-222@628-pgf-2ff", "totalVisitors": 599.0 }, "geometry": { "type": "Point", "coordinates": [ -75.196833, 39.956832 ] } },
{ "type": "Feature", "properties": { "placekey": "22c-222@628-pgm-6ff", "totalVisitors": 1595.0 }, "geometry": { "type": "Point", "coordinates": [ -75.190476, 40.009811 ] } },
{ "type": "Feature", "properties": { "placekey": "22c-222@628-pmb-6ff", "totalVisitors": 2529.0 }, "geometry": { "type": "Point", "coordinates": [ -75.157035, 39.948341 ] } },
{ "type": "Feature", "properties": { "placekey": "22c-222@628-pmf-hh5", "totalVisitors": 943.0 }, "geometry": { "type": "Point", "coordinates": [ -75.171121, 39.951987 ] } },
{ "type": "Feature", "properties": { "placekey": "22c-223@628-pgf-4gk", "totalVisitors": 2187.0 }, "geometry": { "type": "Point", "coordinates": [ -75.190562, 39.958915 ] } },
{ "type": "Feature", "properties": { "placekey": "22c-224@628-p9q-tn5", "totalVisitors": 694.0 }, "geometry": { "type": "Point", "coordinates": [ -75.035832, 40.08417 ] } },
{ "type": "Feature", "properties": { "placekey": "22c-224@628-pm9-td9", "totalVisitors": 4121.0 }, "geometry": { "type": "Point", "coordinates": [ -75.156434, 39.949653 ] } },
{ "type": "Feature", "properties": { "placekey": "22c-224@628-pmf-qs5", "totalVisitors": 239.0 }, "geometry": { "type": "Point", "coordinates": [ -75.167366, 39.943715 ] } },
{ "type": "Feature", "properties": { "placekey": "22c-226@628-pmb-5zz", "totalVisitors": 23.0 }, "geometry": { "type": "Point", "coordinates": [ -75.159353, 39.948991 ] } },
{ "type": "Feature", "properties": { "placekey": "22c-227@628-pmb-5zz", "totalVisitors": 49.0 }, "geometry": { "type": "Point", "coordinates": [ -75.159355, 39.948995 ] } },
{ "type": "Feature", "properties": { "placekey": "22c-228@628-pmb-5zz", "totalVisitors": 718.0 }, "geometry": { "type": "Point", "coordinates": [ -75.159367, 39.948956 ] } },
{ "type": "Feature", "properties": { "placekey": "22c-22c@628-pmb-5zz", "totalVisitors": 12.0 }, "geometry": { "type": "Point", "coordinates": [ -75.159343, 39.948972 ] } },
{ "type": "Feature", "properties": { "placekey": "22c-22d@628-pmb-5zz", "totalVisitors": 1.0 }, "geometry": { "type": "Point", "coordinates": [ -75.159328, 39.948974 ] } },
{ "type": "Feature", "properties": { "placekey": "22c-22g@628-pmb-5zz", "totalVisitors": 5.0 }, "geometry": { "type": "Point", "coordinates": [ -75.159342, 39.948973 ] } },
{ "type": "Feature", "properties": { "placekey": "22d-222@628-p7v-nh5", "totalVisitors": 673.0 }, "geometry": { "type": "Point", "coordinates": [ -75.083766, 40.062377 ] } },
{ "type": "Feature", "properties": { "placekey": "22d-222@628-p9q-yjv", "totalVisitors": 1245.0 }, "geometry": { "type": "Point", "coordinates": [ -75.037989, 40.08626 ] } },
{ "type": "Feature", "properties": { "placekey": "22d-222@628-pg9-tqf", "totalVisitors": 563.0 }, "geometry": { "type": "Point", "coordinates": [ -75.167384, 39.967426 ] } },
{ "type": "Feature", "properties": { "placekey": "22d-222@628-pg9-xwk", "totalVisitors": 680.0 }, "geometry": { "type": "Point", "coordinates": [ -75.160738, 39.966766 ] } },
{ "type": "Feature", "properties": { "placekey": "22d-222@628-pj8-fs5", "totalVisitors": 395.0 }, "geometry": { "type": "Point", "coordinates": [ -75.089761, 40.031268 ] } },
{ "type": "Feature", "properties": { "placekey": "22d-222@628-pj9-4d9", "totalVisitors": 836.0 }, "geometry": { "type": "Point", "coordinates": [ -75.143905, 40.040619 ] } },
{ "type": "Feature", "properties": { "placekey": "22d-222@628-pm3-xdv", "totalVisitors": 221.0 }, "geometry": { "type": "Point", "coordinates": [ -75.157978, 39.930279 ] } },
{ "type": "Feature", "properties": { "placekey": "22d-222@628-pm7-rhq", "totalVisitors": 173.0 }, "geometry": { "type": "Point", "coordinates": [ -75.179284, 39.924503 ] } },
{ "type": "Feature", "properties": { "placekey": "22d-222@628-pmb-6hq", "totalVisitors": 744.0 }, "geometry": { "type": "Point", "coordinates": [ -75.160216, 39.949786 ] } },
{ "type": "Feature", "properties": { "placekey": "22d-222@628-pmb-6tv", "totalVisitors": 1247.0 }, "geometry": { "type": "Point", "coordinates": [ -75.166562, 39.951369 ] } },
{ "type": "Feature", "properties": { "placekey": "22d-222@628-pmf-qmk", "totalVisitors": 257.0 }, "geometry": { "type": "Point", "coordinates": [ -75.166117, 39.943614 ] } },
{ "type": "Feature", "properties": { "placekey": "22d-224@628-p9w-4sq", "totalVisitors": 133.0 }, "geometry": { "type": "Point", "coordinates": [ -75.024035, 40.110409 ] } },
{ "type": "Feature", "properties": { "placekey": "22f-222@628-p85-8qf", "totalVisitors": 727.0 }, "geometry": { "type": "Point", "coordinates": [ -75.045792, 40.056584 ] } },
{ "type": "Feature", "properties": { "placekey": "22f-222@628-php-pvz", "totalVisitors": 456.0 }, "geometry": { "type": "Point", "coordinates": [ -75.158891, 40.056213 ] } },
{ "type": "Feature", "properties": { "placekey": "22f-222@628-pjf-tqf", "totalVisitors": 425.0 }, "geometry": { "type": "Point", "coordinates": [ -75.197845, 40.068322 ] } },
{ "type": "Feature", "properties": { "placekey": "22f-222@628-pmf-j35", "totalVisitors": 111.0 }, "geometry": { "type": "Point", "coordinates": [ -75.170177, 39.950724 ] } },
{ "type": "Feature", "properties": { "placekey": "22g-222@628-p7v-fmk", "totalVisitors": 3146.0 }, "geometry": { "type": "Point", "coordinates": [ -75.072167, 40.054375 ] } },
{ "type": "Feature", "properties": { "placekey": "22g-222@628-pfy-gzf", "totalVisitors": 602.0 }, "geometry": { "type": "Point", "coordinates": [ -75.232632, 40.045431 ] } },
{ "type": "Feature", "properties": { "placekey": "22g-222@628-pgb-k75", "totalVisitors": 195.0 }, "geometry": { "type": "Point", "coordinates": [ -75.15773, 39.970816 ] } },
{ "type": "Feature", "properties": { "placekey": "22g-222@628-pj3-54v", "totalVisitors": 1128.0 }, "geometry": { "type": "Point", "coordinates": [ -75.158726, 40.022681 ] } },
{ "type": "Feature", "properties": { "placekey": "22g-222@628-pmb-ty9", "totalVisitors": 870.0 }, "geometry": { "type": "Point", "coordinates": [ -75.142406, 39.949369 ] } },
{ "type": "Feature", "properties": { "placekey": "22g-222@628-pmf-jgk", "totalVisitors": 1794.0 }, "geometry": { "type": "Point", "coordinates": [ -75.1676, 39.950263 ] } },
{ "type": "Feature", "properties": { "placekey": "22g-222@628-pmf-sqz", "totalVisitors": 1107.0 }, "geometry": { "type": "Point", "coordinates": [ -75.167774, 39.949112 ] } },
{ "type": "Feature", "properties": { "placekey": "22g-222@628-pp4-tn5", "totalVisitors": 902.0 }, "geometry": { "type": "Point", "coordinates": [ -75.11764, 39.979613 ] } },
{ "type": "Feature", "properties": { "placekey": "22h-222@628-pfx-kmk", "totalVisitors": 1210.0 }, "geometry": { "type": "Point", "coordinates": [ -75.225503, 40.02636 ] } },
{ "type": "Feature", "properties": { "placekey": "22h-222@628-pg4-fvf", "totalVisitors": 1308.0 }, "geometry": { "type": "Point", "coordinates": [ -75.176853, 40.033336 ] } },
{ "type": "Feature", "properties": { "placekey": "22h-222@628-pg4-m49", "totalVisitors": 1145.0 }, "geometry": { "type": "Point", "coordinates": [ -75.164907, 40.045702 ] } },
{ "type": "Feature", "properties": { "placekey": "22h-222@628-pg9-kfz", "totalVisitors": 516.0 }, "geometry": { "type": "Point", "coordinates": [ -75.17942, 39.992034 ] } },
{ "type": "Feature", "properties": { "placekey": "22h-222@628-php-q9f", "totalVisitors": 3145.0 }, "geometry": { "type": "Point", "coordinates": [ -75.157863, 40.055857 ] } },
{ "type": "Feature", "properties": { "placekey": "22h-222@628-pmd-vfz", "totalVisitors": 1041.0 }, "geometry": { "type": "Point", "coordinates": [ -75.177135, 39.951096 ] } },
{ "type": "Feature", "properties": { "placekey": "22h-222@63s-dvq-jjv", "totalVisitors": 177.0 }, "geometry": { "type": "Point", "coordinates": [ -75.241632, 39.956767 ] } },
{ "type": "Feature", "properties": { "placekey": "22h-223@628-p7v-gkz", "totalVisitors": 372.0 }, "geometry": { "type": "Point", "coordinates": [ -75.068848, 40.053089 ] } },
{ "type": "Feature", "properties": { "placekey": "22h-223@628-p7x-5zz", "totalVisitors": 3297.0 }, "geometry": { "type": "Point", "coordinates": [ -75.063121, 40.048904 ] } },
{ "type": "Feature", "properties": { "placekey": "22j-222@628-p8m-snq", "totalVisitors": 1911.0 }, "geometry": { "type": "Point", "coordinates": [ -75.07679, 40.023006 ] } },
{ "type": "Feature", "properties": { "placekey": "22j-222@628-pfy-b6k", "totalVisitors": 466.0 }, "geometry": { "type": "Point", "coordinates": [ -75.217909, 40.035119 ] } },
{ "type": "Feature", "properties": { "placekey": "22j-222@628-pg2-hdv", "totalVisitors": 223.0 }, "geometry": { "type": "Point", "coordinates": [ -75.190082, 40.059314 ] } },
{ "type": "Feature", "properties": { "placekey": "22j-222@628-pgg-n5z", "totalVisitors": 347.0 }, "geometry": { "type": "Point", "coordinates": [ -75.16698, 39.99736 ] } },
{ "type": "Feature", "properties": { "placekey": "22j-222@628-pgh-v2k", "totalVisitors": 923.0 }, "geometry": { "type": "Point", "coordinates": [ -75.155936, 39.986366 ] } },
{ "type": "Feature", "properties": { "placekey": "22j-222@628-phz-2c5", "totalVisitors": 885.0 }, "geometry": { "type": "Point", "coordinates": [ -75.114561, 40.021812 ] } },
{ "type": "Feature", "properties": { "placekey": "22j-222@628-pj4-bhq", "totalVisitors": 504.0 }, "geometry": { "type": "Point", "coordinates": [ -75.152909, 40.029767 ] } },
{ "type": "Feature", "properties": { "placekey": "22j-222@628-pj6-tqf", "totalVisitors": 932.0 }, "geometry": { "type": "Point", "coordinates": [ -75.102254, 40.043976 ] } },
{ "type": "Feature", "properties": { "placekey": "22j-222@628-pm4-fcq", "totalVisitors": 578.0 }, "geometry": { "type": "Point", "coordinates": [ -75.173742, 39.922227 ] } },
{ "type": "Feature", "properties": { "placekey": "22j-222@628-pm9-yd9", "totalVisitors": 442.0 }, "geometry": { "type": "Point", "coordinates": [ -75.149126, 39.940822 ] } },
{ "type": "Feature", "properties": { "placekey": "22j-222@628-pm9-zvf", "totalVisitors": 541.0 }, "geometry": { "type": "Point", "coordinates": [ -75.151101, 39.941046 ] } },
{ "type": "Feature", "properties": { "placekey": "22j-222@63s-dvy-pgk", "totalVisitors": 1226.0 }, "geometry": { "type": "Point", "coordinates": [ -75.204323, 39.953909 ] } },
{ "type": "Feature", "properties": { "placekey": "22j-222@63s-dw2-4qf", "totalVisitors": 582.0 }, "geometry": { "type": "Point", "coordinates": [ -75.244616, 39.971994 ] } },
{ "type": "Feature", "properties": { "placekey": "22j-223@628-pgh-v2k", "totalVisitors": 506.0 }, "geometry": { "type": "Point", "coordinates": [ -75.1559, 39.986364 ] } },
{ "type": "Feature", "properties": { "placekey": "22j-225@628-pmd-vfz", "totalVisitors": 1589.0 }, "geometry": { "type": "Point", "coordinates": [ -75.177737, 39.951338 ] } },
{ "type": "Feature", "properties": { "placekey": "22j-225@628-pmf-hh5", "totalVisitors": 33.0 }, "geometry": { "type": "Point", "coordinates": [ -75.171981, 39.952291 ] } },
{ "type": "Feature", "properties": { "placekey": "22k-222@628-p82-4vz", "totalVisitors": 553.0 }, "geometry": { "type": "Point", "coordinates": [ -75.096724, 40.042766 ] } },
{ "type": "Feature", "properties": { "placekey": "22k-222@628-pgb-m8v", "totalVisitors": 694.0 }, "geometry": { "type": "Point", "coordinates": [ -75.156972, 39.970924 ] } },
{ "type": "Feature", "properties": { "placekey": "22k-222@628-pgg-w8v", "totalVisitors": 1877.0 }, "geometry": { "type": "Point", "coordinates": [ -75.172924, 39.996066 ] } },
{ "type": "Feature", "properties": { "placekey": "22k-222@628-pgj-cqz", "totalVisitors": 1428.0 }, "geometry": { "type": "Point", "coordinates": [ -75.159362, 39.977257 ] } },
{ "type": "Feature", "properties": { "placekey": "22k-222@628-phd-h3q", "totalVisitors": 2162.0 }, "geometry": { "type": "Point", "coordinates": [ -75.221115, 40.003473 ] } },
{ "type": "Feature", "properties": { "placekey": "22k-222@628-pm4-h5z", "totalVisitors": 320.0 }, "geometry": { "type": "Point", "coordinates": [ -75.16776, 39.925948 ] } },
{ "type": "Feature", "properties": { "placekey": "22k-222@628-pmb-6p9", "totalVisitors": 607.0 }, "geometry": { "type": "Point", "coordinates": [ -75.166086, 39.951312 ] } },
{ "type": "Feature", "properties": { "placekey": "22k-222@628-pnx-7t9", "totalVisitors": 69.0 }, "geometry": { "type": "Point", "coordinates": [ -75.140921, 39.961646 ] } },
{ "type": "Feature", "properties": { "placekey": "22k-223@628-p85-p35", "totalVisitors": 1296.0 }, "geometry": { "type": "Point", "coordinates": [ -75.030284, 40.057186 ] } },
{ "type": "Feature", "properties": { "placekey": "22k-225@628-pft-z4v", "totalVisitors": 639.0 }, "geometry": { "type": "Point", "coordinates": [ -75.213304, 40.032001 ] } },
{ "type": "Feature", "properties": { "placekey": "22m-222@628-p7v-v75", "totalVisitors": 2202.0 }, "geometry": { "type": "Point", "coordinates": [ -75.075391, 40.059019 ] } },
{ "type": "Feature", "properties": { "placekey": "22m-222@628-pmf-kfz", "totalVisitors": 273.0 }, "geometry": { "type": "Point", "coordinates": [ -75.173804, 39.949693 ] } },
{ "type": "Feature", "properties": { "placekey": "22n-222@628-p8m-whq", "totalVisitors": 1290.0 }, "geometry": { "type": "Point", "coordinates": [ -75.064442, 40.030116 ] } },
{ "type": "Feature", "properties": { "placekey": "22n-222@628-pmb-gp9", "totalVisitors": 351.0 }, "geometry": { "type": "Point", "coordinates": [ -75.161768, 39.946499 ] } },
{ "type": "Feature", "properties": { "placekey": "22n-222@628-pmf-j35", "totalVisitors": 208.0 }, "geometry": { "type": "Point", "coordinates": [ -75.17035, 39.950756 ] } },
{ "type": "Feature", "properties": { "placekey": "22n-222@628-pmf-jjv", "totalVisitors": 640.0 }, "geometry": { "type": "Point", "coordinates": [ -75.170405, 39.952404 ] } },
{ "type": "Feature", "properties": { "placekey": "22n-223@628-pj6-tqf", "totalVisitors": 1350.0 }, "geometry": { "type": "Point", "coordinates": [ -75.101804, 40.044244 ] } },
{ "type": "Feature", "properties": { "placekey": "22n-223@63s-dwf-qs5", "totalVisitors": 560.0 }, "geometry": { "type": "Point", "coordinates": [ -75.242766, 39.912862 ] } },
{ "type": "Feature", "properties": { "placekey": "22n-224@63s-dvy-pjv", "totalVisitors": 137.0 }, "geometry": { "type": "Point", "coordinates": [ -75.202371, 39.956274 ] } },
{ "type": "Feature", "properties": { "placekey": "22p-222@628-pg2-zs5", "totalVisitors": 190.0 }, "geometry": { "type": "Point", "coordinates": [ -75.194451, 40.054139 ] } },
{ "type": "Feature", "properties": { "placekey": "22p-222@628-phj-rp9", "totalVisitors": 5547.0 }, "geometry": { "type": "Point", "coordinates": [ -75.157675, 40.072921 ] } },
{ "type": "Feature", "properties": { "placekey": "22p-222@628-pj2-5cq", "totalVisitors": 1216.0 }, "geometry": { "type": "Point", "coordinates": [ -75.118572, 40.000182 ] } },
{ "type": "Feature", "properties": { "placekey": "22p-222@628-pnt-3wk", "totalVisitors": 1.0 }, "geometry": { "type": "Point", "coordinates": [ -75.121258, 39.973728 ] } },
{ "type": "Feature", "properties": { "placekey": "22p-222@63s-dvp-brk", "totalVisitors": 1516.0 }, "geometry": { "type": "Point", "coordinates": [ -75.23756, 39.946113 ] } },
{ "type": "Feature", "properties": { "placekey": "22p-223@628-pg2-zs5", "totalVisitors": 194.0 }, "geometry": { "type": "Point", "coordinates": [ -75.194452, 40.054139 ] } },
{ "type": "Feature", "properties": { "placekey": "22p-223@63s-dvw-jgk", "totalVisitors": 829.0 }, "geometry": { "type": "Point", "coordinates": [ -75.226174, 39.957388 ] } },
{ "type": "Feature", "properties": { "placekey": "22q-222@628-pgy-hdv", "totalVisitors": 1126.0 }, "geometry": { "type": "Point", "coordinates": [ -75.2357, 40.057171 ] } },
{ "type": "Feature", "properties": { "placekey": "22q-222@628-pmb-xnq", "totalVisitors": 95.0 }, "geometry": { "type": "Point", "coordinates": [ -75.156484, 39.955246 ] } },
{ "type": "Feature", "properties": { "placekey": "22q-222@628-pmf-syv", "totalVisitors": 900.0 }, "geometry": { "type": "Point", "coordinates": [ -75.164917, 39.944749 ] } },
{ "type": "Feature", "properties": { "placekey": "22q-223@628-pj4-35z", "totalVisitors": 2373.0 }, "geometry": { "type": "Point", "coordinates": [ -75.149367, 40.019242 ] } },
{ "type": "Feature", "properties": { "placekey": "22q-224@63s-dw2-4gk", "totalVisitors": 600.0 }, "geometry": { "type": "Point", "coordinates": [ -75.24666, 39.965694 ] } },
{ "type": "Feature", "properties": { "placekey": "22r-222@628-p8h-75z", "totalVisitors": 586.0 }, "geometry": { "type": "Point", "coordinates": [ -75.03579, 40.028178 ] } },
{ "type": "Feature", "properties": { "placekey": "22r-222@628-pfy-yy9", "totalVisitors": 55.0 }, "geometry": { "type": "Point", "coordinates": [ -75.210633, 40.019246 ] } },
{ "type": "Feature", "properties": { "placekey": "22r-222@628-pg9-td9", "totalVisitors": 1036.0 }, "geometry": { "type": "Point", "coordinates": [ -75.168391, 39.967388 ] } },
{ "type": "Feature", "properties": { "placekey": "22r-222@628-pgj-yd9", "totalVisitors": 1326.0 }, "geometry": { "type": "Point", "coordinates": [ -75.159025, 39.994098 ] } },
{ "type": "Feature", "properties": { "placekey": "22r-222@628-pm4-d35", "totalVisitors": 1870.0 }, "geometry": { "type": "Point", "coordinates": [ -75.169649, 39.922429 ] } },
{ "type": "Feature", "properties": { "placekey": "22r-222@628-pm4-r6k", "totalVisitors": 417.0 }, "geometry": { "type": "Point", "coordinates": [ -75.151842, 39.928667 ] } },
{ "type": "Feature", "properties": { "placekey": "22r-222@628-pm5-sdv", "totalVisitors": 2408.0 }, "geometry": { "type": "Point", "coordinates": [ -75.155858, 39.915109 ] } },
{ "type": "Feature", "properties": { "placekey": "22r-222@628-pmf-kcq", "totalVisitors": 1.0 }, "geometry": { "type": "Point", "coordinates": [ -75.173837, 39.951127 ] } },
{ "type": "Feature", "properties": { "placekey": "22r-222@63s-dvy-x89", "totalVisitors": 1022.0 }, "geometry": { "type": "Point", "coordinates": [ -75.211837, 39.955742 ] } },
{ "type": "Feature", "properties": { "placekey": "22r-222@63s-dw2-7nq", "totalVisitors": 1661.0 }, "geometry": { "type": "Point", "coordinates": [ -75.24264, 39.961953 ] } },
{ "type": "Feature", "properties": { "placekey": "22r-223@628-phd-h3q", "totalVisitors": 149.0 }, "geometry": { "type": "Point", "coordinates": [ -75.221487, 40.003016 ] } },
{ "type": "Feature", "properties": { "placekey": "22r-223@628-pm4-p5f", "totalVisitors": 2513.0 }, "geometry": { "type": "Point", "coordinates": [ -75.153259, 39.934749 ] } },
{ "type": "Feature", "properties": { "placekey": "22r-225@628-pnx-8gk", "totalVisitors": 5.0 }, "geometry": { "type": "Point", "coordinates": [ -75.146805, 39.963411 ] } },
{ "type": "Feature", "properties": { "placekey": "22s-222@628-p8n-92k", "totalVisitors": 893.0 }, "geometry": { "type": "Point", "coordinates": [ -75.072008, 40.03365 ] } },
{ "type": "Feature", "properties": { "placekey": "22s-222@628-pm9-yjv", "totalVisitors": 337.0 }, "geometry": { "type": "Point", "coordinates": [ -75.146114, 39.941122 ] } },
{ "type": "Feature", "properties": { "placekey": "22s-222@628-pmb-ks5", "totalVisitors": 62.0 }, "geometry": { "type": "Point", "coordinates": [ -75.144312, 39.951718 ] } },
{ "type": "Feature", "properties": { "placekey": "22s-222@628-pmf-j5f", "totalVisitors": 597.0 }, "geometry": { "type": "Point", "coordinates": [ -75.169555, 39.949868 ] } },
{ "type": "Feature", "properties": { "placekey": "22t-222@628-pgb-7t9", "totalVisitors": 953.0 }, "geometry": { "type": "Point", "coordinates": [ -75.176023, 39.96754 ] } },
{ "type": "Feature", "properties": { "placekey": "22t-222@628-phq-v75", "totalVisitors": 979.0 }, "geometry": { "type": "Point", "coordinates": [ -75.157051, 40.070468 ] } },
{ "type": "Feature", "properties": { "placekey": "22t-222@628-pm4-mrk", "totalVisitors": 8618.0 }, "geometry": { "type": "Point", "coordinates": [ -75.159243, 39.933211 ] } },
{ "type": "Feature", "properties": { "placekey": "22t-222@628-pnw-nqz", "totalVisitors": 89.0 }, "geometry": { "type": "Point", "coordinates": [ -75.134032, 39.971252 ] } },
{ "type": "Feature", "properties": { "placekey": "22t-223@628-ph6-ghq", "totalVisitors": 558.0 }, "geometry": { "type": "Point", "coordinates": [ -75.231369, 39.985073 ] } },
{ "type": "Feature", "properties": { "placekey": "22v-222@628-pm5-rrk", "totalVisitors": 1167.0 }, "geometry": { "type": "Point", "coordinates": [ -75.159038, 39.918092 ] } },
{ "type": "Feature", "properties": { "placekey": "22v-222@628-pmb-ks5", "totalVisitors": 236.0 }, "geometry": { "type": "Point", "coordinates": [ -75.144308, 39.951909 ] } },
{ "type": "Feature", "properties": { "placekey": "22v-222@628-pmb-ygk", "totalVisitors": 1300.0 }, "geometry": { "type": "Point", "coordinates": [ -75.156559, 39.953408 ] } },
{ "type": "Feature", "properties": { "placekey": "22v-222@628-pmd-s5z", "totalVisitors": 599.0 }, "geometry": { "type": "Point", "coordinates": [ -75.177839, 39.945025 ] } },
{ "type": "Feature", "properties": { "placekey": "22v-222@628-pmf-s89", "totalVisitors": 487.0 }, "geometry": { "type": "Point", "coordinates": [ -75.16721, 39.94877 ] } },
{ "type": "Feature", "properties": { "placekey": "22v-222@628-pp5-2hq", "totalVisitors": 576.0 }, "geometry": { "type": "Point", "coordinates": [ -75.138024, 39.991557 ] } },
{ "type": "Feature", "properties": { "placekey": "22v-222@63s-dvq-5cq", "totalVisitors": 451.0 }, "geometry": { "type": "Point", "coordinates": [ -75.232331, 39.947893 ] } },
{ "type": "Feature", "properties": { "placekey": "22v-223@628-pp5-2hq", "totalVisitors": 1189.0 }, "geometry": { "type": "Point", "coordinates": [ -75.138071, 39.99156 ] } },
{ "type": "Feature", "properties": { "placekey": "22w-222@628-p82-4jv", "totalVisitors": 478.0 }, "geometry": { "type": "Point", "coordinates": [ -75.098422, 40.046436 ] } },
{ "type": "Feature", "properties": { "placekey": "22w-222@628-pj9-6tv", "totalVisitors": 1232.0 }, "geometry": { "type": "Point", "coordinates": [ -75.144674, 40.042675 ] } },
{ "type": "Feature", "properties": { "placekey": "22w-222@628-pm9-2ff", "totalVisitors": 653.0 }, "geometry": { "type": "Point", "coordinates": [ -75.168518, 39.916653 ] } },
{ "type": "Feature", "properties": { "placekey": "22w-222@628-pnx-n3q", "totalVisitors": 1526.0 }, "geometry": { "type": "Point", "coordinates": [ -75.12941, 39.967311 ] } },
{ "type": "Feature", "properties": { "placekey": "22w-222@628-pp5-c5z", "totalVisitors": 1222.0 }, "geometry": { "type": "Point", "coordinates": [ -75.116199, 39.990517 ] } },
{ "type": "Feature", "properties": { "placekey": "22w-222@63s-dvr-7kf", "totalVisitors": 2062.0 }, "geometry": { "type": "Point", "coordinates": [ -75.232951, 39.926698 ] } },
{ "type": "Feature", "properties": { "placekey": "22w-223@628-pj9-6tv", "totalVisitors": 1339.0 }, "geometry": { "type": "Point", "coordinates": [ -75.144672, 40.042675 ] } },
{ "type": "Feature", "properties": { "placekey": "22x-222@628-p7w-7t9", "totalVisitors": 1112.0 }, "geometry": { "type": "Point", "coordinates": [ -75.057476, 40.06283 ] } },
{ "type": "Feature", "properties": { "placekey": "22x-222@628-pgj-c5z", "totalVisitors": 989.0 }, "geometry": { "type": "Point", "coordinates": [ -75.160092, 39.979163 ] } },
{ "type": "Feature", "properties": { "placekey": "22x-224@628-pmb-2kz", "totalVisitors": 320.0 }, "geometry": { "type": "Point", "coordinates": [ -75.150956, 39.940038 ] } },
{ "type": "Feature", "properties": { "placekey": "22y-222@628-pgj-dsq", "totalVisitors": 102.0 }, "geometry": { "type": "Point", "coordinates": [ -75.163312, 39.979182 ] } },
{ "type": "Feature", "properties": { "placekey": "22y-222@628-pmf-sh5", "totalVisitors": 664.0 }, "geometry": { "type": "Point", "coordinates": [ -75.168108, 39.948024 ] } },
{ "type": "Feature", "properties": { "placekey": "22y-222@628-pnx-cqz", "totalVisitors": 20.0 }, "geometry": { "type": "Point", "coordinates": [ -75.131315, 39.969657 ] } },
{ "type": "Feature", "properties": { "placekey": "22y-222@63s-dvy-9cq", "totalVisitors": 108.0 }, "geometry": { "type": "Point", "coordinates": [ -75.216976, 39.948248 ] } },
{ "type": "Feature", "properties": { "placekey": "22y-223@628-pmd-w49", "totalVisitors": 304.0 }, "geometry": { "type": "Point", "coordinates": [ -75.1744, 39.948538 ] } },
{ "type": "Feature", "properties": { "placekey": "22y-223@628-pmd-zfz", "totalVisitors": 354.0 }, "geometry": { "type": "Point", "coordinates": [ -75.180104, 39.939343 ] } },
{ "type": "Feature", "properties": { "placekey": "22z-222@628-phq-g8v", "totalVisitors": 2486.0 }, "geometry": { "type": "Point", "coordinates": [ -75.151838, 40.063098 ] } },
{ "type": "Feature", "properties": { "placekey": "22z-222@628-pm9-t7q", "totalVisitors": 712.0 }, "geometry": { "type": "Point", "coordinates": [ -75.154633, 39.949133 ] } },
{ "type": "Feature", "properties": { "placekey": "22z-222@628-pm9-wkz", "totalVisitors": 642.0 }, "geometry": { "type": "Point", "coordinates": [ -75.144686, 39.94862 ] } },
{ "type": "Feature", "properties": { "placekey": "22z-222@63s-dvr-b8v", "totalVisitors": 3259.0 }, "geometry": { "type": "Point", "coordinates": [ -75.227679, 39.930794 ] } },
{ "type": "Feature", "properties": { "placekey": "232-222@628-pmb-v4v", "totalVisitors": 362.0 }, "geometry": { "type": "Point", "coordinates": [ -75.144276, 39.949732 ] } },
{ "type": "Feature", "properties": { "placekey": "232-222@63s-dvy-9cq", "totalVisitors": 140.0 }, "geometry": { "type": "Point", "coordinates": [ -75.217146, 39.948415 ] } },
{ "type": "Feature", "properties": { "placekey": "232-222@63s-dvy-zmk", "totalVisitors": 605.0 }, "geometry": { "type": "Point", "coordinates": [ -75.211231, 39.956487 ] } },
{ "type": "Feature", "properties": { "placekey": "233-222@628-pj9-zmk", "totalVisitors": 1417.0 }, "geometry": { "type": "Point", "coordinates": [ -75.130841, 40.036383 ] } },
{ "type": "Feature", "properties": { "placekey": "234-222@628-pp5-4sq", "totalVisitors": 1032.0 }, "geometry": { "type": "Point", "coordinates": [ -75.12984, 39.979822 ] } },
{ "type": "Feature", "properties": { "placekey": "234-223@628-pmb-yd9", "totalVisitors": 325.0 }, "geometry": { "type": "Point", "coordinates": [ -75.157066, 39.954379 ] } },
{ "type": "Feature", "properties": { "placekey": "235-222@628-pj4-wx5", "totalVisitors": 1128.0 }, "geometry": { "type": "Point", "coordinates": [ -75.140222, 40.000305 ] } },
{ "type": "Feature", "properties": { "placekey": "235-222@628-pm3-st9", "totalVisitors": 165.0 }, "geometry": { "type": "Point", "coordinates": [ -75.164106, 39.929105 ] } },
{ "type": "Feature", "properties": { "placekey": "235-222@628-pmb-66k", "totalVisitors": 911.0 }, "geometry": { "type": "Point", "coordinates": [ -75.160716, 39.948772 ] } },
{ "type": "Feature", "properties": { "placekey": "235-222@63s-dvr-hyv", "totalVisitors": 1233.0 }, "geometry": { "type": "Point", "coordinates": [ -75.234469, 39.925228 ] } },
{ "type": "Feature", "properties": { "placekey": "236-222@628-p8m-cbk", "totalVisitors": 658.0 }, "geometry": { "type": "Point", "coordinates": [ -75.065885, 40.01446 ] } },
{ "type": "Feature", "properties": { "placekey": "236-222@628-pp5-2rk", "totalVisitors": 1418.0 }, "geometry": { "type": "Point", "coordinates": [ -75.13565, 39.991218 ] } },
{ "type": "Feature", "properties": { "placekey": "236-223@628-pmb-gp9", "totalVisitors": 423.0 }, "geometry": { "type": "Point", "coordinates": [ -75.162225, 39.946832 ] } },
{ "type": "Feature", "properties": { "placekey": "237-222@628-pm9-tn5", "totalVisitors": 246.0 }, "geometry": { "type": "Point", "coordinates": [ -75.153186, 39.948875 ] } },
{ "type": "Feature", "properties": { "placekey": "237-222@628-pm9-y9z", "totalVisitors": 1889.0 }, "geometry": { "type": "Point", "coordinates": [ -75.149322, 39.941492 ] } },
{ "type": "Feature", "properties": { "placekey": "237-223@628-pfz-zxq", "totalVisitors": 386.0 }, "geometry": { "type": "Point", "coordinates": [ -75.215788, 40.02621 ] } },
{ "type": "Feature", "properties": { "placekey": "237-223@628-pj3-b8v", "totalVisitors": 796.0 }, "geometry": { "type": "Point", "coordinates": [ -75.15796, 40.013776 ] } },
{ "type": "Feature", "properties": { "placekey": "238-222@628-pg9-ty9", "totalVisitors": 115.0 }, "geometry": { "type": "Point", "coordinates": [ -75.164329, 39.96307 ] } },
{ "type": "Feature", "properties": { "placekey": "238-222@628-pm9-tn5", "totalVisitors": 432.0 }, "geometry": { "type": "Point", "coordinates": [ -75.152807, 39.948282 ] } },
{ "type": "Feature", "properties": { "placekey": "238-223@628-pj4-qmk", "totalVisitors": 600.0 }, "geometry": { "type": "Point", "coordinates": [ -75.140673, 40.006424 ] } },
{ "type": "Feature", "properties": { "placekey": "239-222@628-p8j-9mk", "totalVisitors": 864.0 }, "geometry": { "type": "Point", "coordinates": [ -75.044608, 40.035087 ] } },
{ "type": "Feature", "properties": { "placekey": "239-222@628-pmb-6x5", "totalVisitors": 111.0 }, "geometry": { "type": "Point", "coordinates": [ -75.166198, 39.95019 ] } },
{ "type": "Feature", "properties": { "placekey": "239-222@628-pmd-rx5", "totalVisitors": 265.0 }, "geometry": { "type": "Point", "coordinates": [ -75.179191, 39.947447 ] } },
{ "type": "Feature", "properties": { "placekey": "239-222@628-pmf-pqf", "totalVisitors": 877.0 }, "geometry": { "type": "Point", "coordinates": [ -75.169738, 39.944355 ] } },
{ "type": "Feature", "properties": { "placekey": "239-222@628-pnz-pqf", "totalVisitors": 530.0 }, "geometry": { "type": "Point", "coordinates": [ -75.094271, 39.989783 ] } },
{ "type": "Feature", "properties": { "placekey": "23b-222@628-pgj-cbk", "totalVisitors": 720.0 }, "geometry": { "type": "Point", "coordinates": [ -75.162616, 39.979114 ] } },
{ "type": "Feature", "properties": { "placekey": "23b-223@628-phn-9fz", "totalVisitors": 592.0 }, "geometry": { "type": "Point", "coordinates": [ -75.174024, 40.079411 ] } },
{ "type": "Feature", "properties": { "placekey": "23c-222@628-p8f-9xq", "totalVisitors": 530.0 }, "geometry": { "type": "Point", "coordinates": [ -75.086178, 40.013686 ] } },
{ "type": "Feature", "properties": { "placekey": "23c-222@628-phq-f9f", "totalVisitors": 1077.0 }, "geometry": { "type": "Point", "coordinates": [ -75.155303, 40.065055 ] } },
{ "type": "Feature", "properties": { "placekey": "23c-222@628-pm3-tvz", "totalVisitors": 405.0 }, "geometry": { "type": "Point", "coordinates": [ -75.16279, 39.928677 ] } },
{ "type": "Feature", "properties": { "placekey": "23c-223@628-pj5-3yv", "totalVisitors": 150.0 }, "geometry": { "type": "Point", "coordinates": [ -75.151263, 40.010154 ] } },
{ "type": "Feature", "properties": { "placekey": "23c-223@63s-dvy-cyv", "totalVisitors": 712.0 }, "geometry": { "type": "Point", "coordinates": [ -75.216992, 39.938065 ] } },
{ "type": "Feature", "properties": { "placekey": "23c-224@628-pg9-ty9", "totalVisitors": 165.0 }, "geometry": { "type": "Point", "coordinates": [ -75.164331, 39.963074 ] } },
{ "type": "Feature", "properties": { "placekey": "23c-224@628-pm7-nbk", "totalVisitors": 106.0 }, "geometry": { "type": "Point", "coordinates": [ -75.183646, 39.938145 ] } },
{ "type": "Feature", "properties": { "placekey": "23d-222@628-pgh-v75", "totalVisitors": 255.0 }, "geometry": { "type": "Point", "coordinates": [ -75.157583, 39.986287 ] } },
{ "type": "Feature", "properties": { "placekey": "23d-222@628-pm4-m6k", "totalVisitors": 411.0 }, "geometry": { "type": "Point", "coordinates": [ -75.161378, 39.934504 ] } },
{ "type": "Feature", "properties": { "placekey": "23d-222@628-pmf-rx5", "totalVisitors": 38.0 }, "geometry": { "type": "Point", "coordinates": [ -75.170025, 39.944062 ] } },
{ "type": "Feature", "properties": { "placekey": "23d-222@628-pnx-bzf", "totalVisitors": 533.0 }, "geometry": { "type": "Point", "coordinates": [ -75.13378, 39.97297 ] } },
{ "type": "Feature", "properties": { "placekey": "23f-222@628-p8n-cbk", "totalVisitors": 6771.0 }, "geometry": { "type": "Point", "coordinates": [ -75.071123, 40.035584 ] } },
{ "type": "Feature", "properties": { "placekey": "23f-222@628-pgd-tqf", "totalVisitors": 602.0 }, "geometry": { "type": "Point", "coordinates": [ -75.194097, 39.962448 ] } },
{ "type": "Feature", "properties": { "placekey": "23f-222@628-pm4-dsq", "totalVisitors": 832.0 }, "geometry": { "type": "Point", "coordinates": [ -75.17594, 39.922841 ] } },
{ "type": "Feature", "properties": { "placekey": "23f-222@628-pmb-gkz", "totalVisitors": 346.0 }, "geometry": { "type": "Point", "coordinates": [ -75.160742, 39.944903 ] } },
{ "type": "Feature", "properties": { "placekey": "23f-222@628-pp5-p35", "totalVisitors": 838.0 }, "geometry": { "type": "Point", "coordinates": [ -75.123286, 39.991233 ] } },
{ "type": "Feature", "properties": { "placekey": "23f-223@628-p8n-cbk", "totalVisitors": 3682.0 }, "geometry": { "type": "Point", "coordinates": [ -75.071131, 40.035566 ] } },
{ "type": "Feature", "properties": { "placekey": "23f-224@628-pm9-zxq", "totalVisitors": 64.0 }, "geometry": { "type": "Point", "coordinates": [ -75.15274, 39.941826 ] } },
{ "type": "Feature", "properties": { "placekey": "23g-222@63s-dvr-gtv", "totalVisitors": 1201.0 }, "geometry": { "type": "Point", "coordinates": [ -75.227662, 39.926055 ] } },
{ "type": "Feature", "properties": { "placekey": "23h-222@628-pmd-sbk", "totalVisitors": 280.0 }, "geometry": { "type": "Point", "coordinates": [ -75.179141, 39.945205 ] } },
{ "type": "Feature", "properties": { "placekey": "23h-222@628-pmf-kvf", "totalVisitors": 626.0 }, "geometry": { "type": "Point", "coordinates": [ -75.174777, 39.951643 ] } },
{ "type": "Feature", "properties": { "placekey": "23j-222@628-pm9-5cq", "totalVisitors": 1626.0 }, "geometry": { "type": "Point", "coordinates": [ -75.164793, 39.915802 ] } },
{ "type": "Feature", "properties": { "placekey": "23j-222@628-pm9-5zz", "totalVisitors": 917.0 }, "geometry": { "type": "Point", "coordinates": [ -75.171282, 39.918638 ] } },
{ "type": "Feature", "properties": { "placekey": "23k-222@628-p8j-94v", "totalVisitors": 387.0 }, "geometry": { "type": "Point", "coordinates": [ -75.044102, 40.034583 ] } },
{ "type": "Feature", "properties": { "placekey": "23k-223@628-pg8-ks5", "totalVisitors": 120.0 }, "geometry": { "type": "Point", "coordinates": [ -75.182529, 39.974204 ] } },
{ "type": "Feature", "properties": { "placekey": "23m-222@628-pj2-nqz", "totalVisitors": 453.0 }, "geometry": { "type": "Point", "coordinates": [ -75.10164, 40.005833 ] } },
{ "type": "Feature", "properties": { "placekey": "23n-222@628-p8d-m49", "totalVisitors": 715.0 }, "geometry": { "type": "Point", "coordinates": [ -75.090522, 40.011851 ] } },
{ "type": "Feature", "properties": { "placekey": "23n-222@63s-dw2-7t9", "totalVisitors": 641.0 }, "geometry": { "type": "Point", "coordinates": [ -75.244821, 39.962688 ] } },
{ "type": "Feature", "properties": { "placekey": "23p-222@628-pm9-yd9", "totalVisitors": 1220.0 }, "geometry": { "type": "Point", "coordinates": [ -75.149633, 39.940489 ] } },
{ "type": "Feature", "properties": { "placekey": "23p-222@63s-dvw-k9f", "totalVisitors": 813.0 }, "geometry": { "type": "Point", "coordinates": [ -75.225498, 39.955634 ] } },
{ "type": "Feature", "properties": { "placekey": "23q-222@628-php-975", "totalVisitors": 887.0 }, "geometry": { "type": "Point", "coordinates": [ -75.17306, 40.080529 ] } },
{ "type": "Feature", "properties": { "placekey": "23q-222@628-pm4-rhq", "totalVisitors": 484.0 }, "geometry": { "type": "Point", "coordinates": [ -75.150719, 39.925316 ] } },
{ "type": "Feature", "properties": { "placekey": "23q-223@628-pmb-ce5", "totalVisitors": 1136.0 }, "geometry": { "type": "Point", "coordinates": [ -75.1574, 39.939802 ] } },
{ "type": "Feature", "properties": { "placekey": "23r-222@628-pmb-fxq", "totalVisitors": 403.0 }, "geometry": { "type": "Point", "coordinates": [ -75.154631, 39.942112 ] } },
{ "type": "Feature", "properties": { "placekey": "23r-223@628-pnx-7qz", "totalVisitors": 302.0 }, "geometry": { "type": "Point", "coordinates": [ -75.141391, 39.962218 ] } },
{ "type": "Feature", "properties": { "placekey": "23s-222@63s-dvx-xh5", "totalVisitors": 254.0 }, "geometry": { "type": "Point", "coordinates": [ -75.213531, 39.949193 ] } },
{ "type": "Feature", "properties": { "placekey": "23t-222@628-pgg-gzf", "totalVisitors": 1007.0 }, "geometry": { "type": "Point", "coordinates": [ -75.167765, 39.995432 ] } },
{ "type": "Feature", "properties": { "placekey": "23t-222@628-phy-x89", "totalVisitors": 372.0 }, "geometry": { "type": "Point", "coordinates": [ -75.120676, 40.02727 ] } },
{ "type": "Feature", "properties": { "placekey": "23v-222@628-pmf-sh5", "totalVisitors": 716.0 }, "geometry": { "type": "Point", "coordinates": [ -75.167807, 39.947789 ] } },
{ "type": "Feature", "properties": { "placekey": "23v-222@628-pnw-nnq", "totalVisitors": 863.0 }, "geometry": { "type": "Point", "coordinates": [ -75.136377, 39.969247 ] } },
{ "type": "Feature", "properties": { "placekey": "23w-222@628-pnw-k9f", "totalVisitors": 346.0 }, "geometry": { "type": "Point", "coordinates": [ -75.137009, 39.968852 ] } },
{ "type": "Feature", "properties": { "placekey": "23w-222@628-pnw-pjv", "totalVisitors": 352.0 }, "geometry": { "type": "Point", "coordinates": [ -75.133943, 39.969215 ] } },
{ "type": "Feature", "properties": { "placekey": "23x-222@628-pm4-3qz", "totalVisitors": 737.0 }, "geometry": { "type": "Point", "coordinates": [ -75.16091, 39.925663 ] } },
{ "type": "Feature", "properties": { "placekey": "23x-222@628-pm9-5cq", "totalVisitors": 2094.0 }, "geometry": { "type": "Point", "coordinates": [ -75.164638, 39.91616 ] } },
{ "type": "Feature", "properties": { "placekey": "23x-222@628-pnx-cbk", "totalVisitors": 221.0 }, "geometry": { "type": "Point", "coordinates": [ -75.13265, 39.97443 ] } },
{ "type": "Feature", "properties": { "placekey": "23y-222@628-pg8-jjv", "totalVisitors": 213.0 }, "geometry": { "type": "Point", "coordinates": [ -75.179259, 39.97383 ] } },
{ "type": "Feature", "properties": { "placekey": "23z-222@628-pm3-t5f", "totalVisitors": 252.0 }, "geometry": { "type": "Point", "coordinates": [ -75.162757, 39.93027 ] } },
{ "type": "Feature", "properties": { "placekey": "23z-222@628-pm7-st9", "totalVisitors": 337.0 }, "geometry": { "type": "Point", "coordinates": [ -75.184012, 39.923564 ] } },
{ "type": "Feature", "properties": { "placekey": "242-223@628-pp4-qxq", "totalVisitors": 129.0 }, "geometry": { "type": "Point", "coordinates": [ -75.118101, 39.975224 ] } },
{ "type": "Feature", "properties": { "placekey": "243-222@628-pm9-y5f", "totalVisitors": 560.0 }, "geometry": { "type": "Point", "coordinates": [ -75.14792, 39.940725 ] } },
{ "type": "Feature", "properties": { "placekey": "243-222@628-pmb-fxq", "totalVisitors": 1051.0 }, "geometry": { "type": "Point", "coordinates": [ -75.154573, 39.942147 ] } },
{ "type": "Feature", "properties": { "placekey": "244-222@628-phy-kmk", "totalVisitors": 1505.0 }, "geometry": { "type": "Point", "coordinates": [ -75.132591, 40.025961 ] } },
{ "type": "Feature", "properties": { "placekey": "245-222@628-phy-q4v", "totalVisitors": 507.0 }, "geometry": { "type": "Point", "coordinates": [ -75.138865, 40.017285 ] } },
{ "type": "Feature", "properties": { "placekey": "245-222@628-pm4-h5z", "totalVisitors": 976.0 }, "geometry": { "type": "Point", "coordinates": [ -75.168834, 39.926328 ] } },
{ "type": "Feature", "properties": { "placekey": "247-222@628-pg9-vj9", "totalVisitors": 1432.0 }, "geometry": { "type": "Point", "coordinates": [ -75.170353, 39.967027 ] } },
{ "type": "Feature", "properties": { "placekey": "247-222@628-pm3-t5f", "totalVisitors": 69.0 }, "geometry": { "type": "Point", "coordinates": [ -75.162887, 39.930013 ] } },
{ "type": "Feature", "properties": { "placekey": "248-222@628-pm7-r6k", "totalVisitors": 481.0 }, "geometry": { "type": "Point", "coordinates": [ -75.180132, 39.923754 ] } },
{ "type": "Feature", "properties": { "placekey": "248-222@628-pmd-zpv", "totalVisitors": 440.0 }, "geometry": { "type": "Point", "coordinates": [ -75.178827, 39.937536 ] } },
{ "type": "Feature", "properties": { "placekey": "248-223@628-p7x-7dv", "totalVisitors": 773.0 }, "geometry": { "type": "Point", "coordinates": [ -75.064815, 40.050189 ] } },
{ "type": "Feature", "properties": { "placekey": "248-224@628-pm6-fcq", "totalVisitors": 243.0 }, "geometry": { "type": "Point", "coordinates": [ -75.150959, 39.92184 ] } },
{ "type": "Feature", "properties": { "placekey": "24c-222@628-pm7-sh5", "totalVisitors": 1946.0 }, "geometry": { "type": "Point", "coordinates": [ -75.18482, 39.922589 ] } },
{ "type": "Feature", "properties": { "placekey": "24c-223@628-pmb-gtv", "totalVisitors": 270.0 }, "geometry": { "type": "Point", "coordinates": [ -75.159468, 39.947198 ] } },
{ "type": "Feature", "properties": { "placekey": "24d-222@628-pg9-xyv", "totalVisitors": 672.0 }, "geometry": { "type": "Point", "coordinates": [ -75.162096, 39.967908 ] } },
{ "type": "Feature", "properties": { "placekey": "24d-222@628-pm7-tqf", "totalVisitors": 967.0 }, "geometry": { "type": "Point", "coordinates": [ -75.178275, 39.926868 ] } },
{ "type": "Feature", "properties": { "placekey": "24g-222@628-pj5-t9z", "totalVisitors": 990.0 }, "geometry": { "type": "Point", "coordinates": [ -75.135583, 40.012253 ] } },
{ "type": "Feature", "properties": { "placekey": "24g-222@628-pm4-f4v", "totalVisitors": 809.0 }, "geometry": { "type": "Point", "coordinates": [ -75.175698, 39.92419 ] } },
{ "type": "Feature", "properties": { "placekey": "24g-222@628-pmb-cwk", "totalVisitors": 145.0 }, "geometry": { "type": "Point", "coordinates": [ -75.163741, 39.943263 ] } },
{ "type": "Feature", "properties": { "placekey": "24g-223@628-pj5-t9z", "totalVisitors": 500.0 }, "geometry": { "type": "Point", "coordinates": [ -75.135567, 40.012254 ] } },
{ "type": "Feature", "properties": { "placekey": "24k-222@628-pj2-94v", "totalVisitors": 923.0 }, "geometry": { "type": "Point", "coordinates": [ -75.114597, 40.0012 ] } },
{ "type": "Feature", "properties": { "placekey": "24k-222@628-pm3-tqf", "totalVisitors": 539.0 }, "geometry": { "type": "Point", "coordinates": [ -75.160333, 39.928548 ] } },
{ "type": "Feature", "properties": { "placekey": "24k-222@63s-dvw-j5f", "totalVisitors": 554.0 }, "geometry": { "type": "Point", "coordinates": [ -75.226326, 39.956818 ] } },
{ "type": "Feature", "properties": { "placekey": "24m-222@628-pm4-tsq", "totalVisitors": 192.0 }, "geometry": { "type": "Point", "coordinates": [ -75.149656, 39.931451 ] } },
{ "type": "Feature", "properties": { "placekey": "24m-222@628-pm9-y9z", "totalVisitors": 135.0 }, "geometry": { "type": "Point", "coordinates": [ -75.149256, 39.941969 ] } },
{ "type": "Feature", "properties": { "placekey": "24m-223@628-pmf-2tv", "totalVisitors": 530.0 }, "geometry": { "type": "Point", "coordinates": [ -75.175466, 39.943901 ] } },
{ "type": "Feature", "properties": { "placekey": "24q-222@628-pnx-dsq", "totalVisitors": 305.0 }, "geometry": { "type": "Point", "coordinates": [ -75.12707, 39.976879 ] } },
{ "type": "Feature", "properties": { "placekey": "24r-223@628-pm4-n3q", "totalVisitors": 63.0 }, "geometry": { "type": "Point", "coordinates": [ -75.158753, 39.933939 ] } },
{ "type": "Feature", "properties": { "placekey": "24t-222@628-pm3-vpv", "totalVisitors": 650.0 }, "geometry": { "type": "Point", "coordinates": [ -75.165885, 39.927967 ] } },
{ "type": "Feature", "properties": { "placekey": "24t-222@628-pmb-26k", "totalVisitors": 1613.0 }, "geometry": { "type": "Point", "coordinates": [ -75.15033, 39.937457 ] } },
{ "type": "Feature", "properties": { "placekey": "24x-222@628-pm3-vpv", "totalVisitors": 417.0 }, "geometry": { "type": "Point", "coordinates": [ -75.166004, 39.927906 ] } },
{ "type": "Feature", "properties": { "placekey": "24x-222@628-pm4-n3q", "totalVisitors": 6057.0 }, "geometry": { "type": "Point", "coordinates": [ -75.158835, 39.933795 ] } },
{ "type": "Feature", "properties": { "placekey": "24x-223@628-pm3-vpv", "totalVisitors": 945.0 }, "geometry": { "type": "Point", "coordinates": [ -75.166039, 39.92789 ] } },
{ "type": "Feature", "properties": { "placekey": "24x-224@628-pm3-vpv", "totalVisitors": 42.0 }, "geometry": { "type": "Point", "coordinates": [ -75.166012, 39.927914 ] } },
{ "type": "Feature", "properties": { "placekey": "24z-222@628-pm4-pjv", "totalVisitors": 714.0 }, "geometry": { "type": "Point", "coordinates": [ -75.158259, 39.937933 ] } },
{ "type": "Feature", "properties": { "placekey": "24z-222@628-pm9-yjv", "totalVisitors": 16.0 }, "geometry": { "type": "Point", "coordinates": [ -75.145948, 39.940713 ] } },
{ "type": "Feature", "properties": { "placekey": "24z-223@628-pm9-5j9", "totalVisitors": 846.0 }, "geometry": { "type": "Point", "coordinates": [ -75.165868, 39.916313 ] } },
{ "type": "Feature", "properties": { "placekey": "25b-222@628-pm9-4y9", "totalVisitors": 612.0 }, "geometry": { "type": "Point", "coordinates": [ -75.166756, 39.920006 ] } },
{ "type": "Feature", "properties": { "placekey": "25b-222@628-pm9-5xq", "totalVisitors": 669.0 }, "geometry": { "type": "Point", "coordinates": [ -75.171386, 39.919634 ] } },
{ "type": "Feature", "properties": { "placekey": "25g-222@628-pj5-pn5", "totalVisitors": 1622.0 }, "geometry": { "type": "Point", "coordinates": [ -75.141656, 40.012434 ] } },
{ "type": "Feature", "properties": { "placekey": "25g-222@628-pm3-tvz", "totalVisitors": 157.0 }, "geometry": { "type": "Point", "coordinates": [ -75.162052, 39.928305 ] } },
{ "type": "Feature", "properties": { "placekey": "25h-222@628-pm3-vpv", "totalVisitors": 76.0 }, "geometry": { "type": "Point", "coordinates": [ -75.166327, 39.927124 ] } },
{ "type": "Feature", "properties": { "placekey": "25q-223@628-pmb-cbk", "totalVisitors": 91.0 }, "geometry": { "type": "Point", "coordinates": [ -75.155693, 39.940319 ] } },
{ "type": "Feature", "properties": { "placekey": "269-222@628-pm3-syv", "totalVisitors": 501.0 }, "geometry": { "type": "Point", "coordinates": [ -75.164743, 39.928992 ] } },
{ "type": "Feature", "properties": { "placekey": "26s-222@628-pmf-mzf", "totalVisitors": 3667.0 }, "geometry": { "type": "Point", "coordinates": [ -75.166161, 39.954136 ] } },
{ "type": "Feature", "properties": { "placekey": "2kn-222@628-pmf-tjv", "totalVisitors": 3.0 }, "geometry": { "type": "Point", "coordinates": [ -75.172809, 39.948304 ] } },
{ "type": "Feature", "properties": { "placekey": "zzw-222@628-p6z-rkz", "totalVisitors": 214.0 }, "geometry": { "type": "Point", "coordinates": [ -75.006597, 40.045735 ] } },
{ "type": "Feature", "properties": { "placekey": "zzw-222@628-p76-94v", "totalVisitors": 865.0 }, "geometry": { "type": "Point", "coordinates": [ -75.01738, 40.034019 ] } },
{ "type": "Feature", "properties": { "placekey": "zzw-222@628-p7v-dsq", "totalVisitors": 1904.0 }, "geometry": { "type": "Point", "coordinates": [ -75.064753, 40.052202 ] } },
{ "type": "Feature", "properties": { "placekey": "zzw-222@628-p8b-dqf", "totalVisitors": 1567.0 }, "geometry": { "type": "Point", "coordinates": [ -75.058106, 40.018473 ] } },
{ "type": "Feature", "properties": { "placekey": "zzw-222@628-p8m-x5z", "totalVisitors": 1256.0 }, "geometry": { "type": "Point", "coordinates": [ -75.06219, 40.028006 ] } },
{ "type": "Feature", "properties": { "placekey": "zzw-222@628-p8n-c3q", "totalVisitors": 1429.0 }, "geometry": { "type": "Point", "coordinates": [ -75.063191, 40.032699 ] } },
{ "type": "Feature", "properties": { "placekey": "zzw-222@628-p9k-3wk", "totalVisitors": 1618.0 }, "geometry": { "type": "Point", "coordinates": [ -75.009279, 40.100644 ] } },
{ "type": "Feature", "properties": { "placekey": "zzw-222@628-p9k-k2k", "totalVisitors": 314.0 }, "geometry": { "type": "Point", "coordinates": [ -75.016714, 40.094163 ] } },
{ "type": "Feature", "properties": { "placekey": "zzw-222@628-pft-ygk", "totalVisitors": 1793.0 }, "geometry": { "type": "Point", "coordinates": [ -75.206304, 40.029131 ] } },
{ "type": "Feature", "properties": { "placekey": "zzw-222@628-pft-yjv", "totalVisitors": 496.0 }, "geometry": { "type": "Point", "coordinates": [ -75.208111, 40.031588 ] } },
{ "type": "Feature", "properties": { "placekey": "zzw-222@628-pfy-j5f", "totalVisitors": 1639.0 }, "geometry": { "type": "Point", "coordinates": [ -75.231527, 40.04433 ] } },
{ "type": "Feature", "properties": { "placekey": "zzw-222@628-pg9-3yv", "totalVisitors": 1421.0 }, "geometry": { "type": "Point", "coordinates": [ -75.172494, 39.987217 ] } },
{ "type": "Feature", "properties": { "placekey": "zzw-222@628-pg9-vs5", "totalVisitors": 356.0 }, "geometry": { "type": "Point", "coordinates": [ -75.172391, 39.965388 ] } },
{ "type": "Feature", "properties": { "placekey": "zzw-222@628-pgb-3h5", "totalVisitors": 2124.0 }, "geometry": { "type": "Point", "coordinates": [ -75.165082, 39.955501 ] } },
{ "type": "Feature", "properties": { "placekey": "zzw-222@628-pgb-k75", "totalVisitors": 53.0 }, "geometry": { "type": "Point", "coordinates": [ -75.157777, 39.970816 ] } },
{ "type": "Feature", "properties": { "placekey": "zzw-222@628-pgc-j7q", "totalVisitors": 702.0 }, "geometry": { "type": "Point", "coordinates": [ -75.206232, 39.973624 ] } },
{ "type": "Feature", "properties": { "placekey": "zzw-222@628-pgd-x3q", "totalVisitors": 460.0 }, "geometry": { "type": "Point", "coordinates": [ -75.19109, 39.966181 ] } },
{ "type": "Feature", "properties": { "placekey": "zzw-222@628-pgf-4jv", "totalVisitors": 2379.0 }, "geometry": { "type": "Point", "coordinates": [ -75.189568, 39.957386 ] } },
{ "type": "Feature", "properties": { "placekey": "zzw-222@628-pgg-gtv", "totalVisitors": 2299.0 }, "geometry": { "type": "Point", "coordinates": [ -75.154551, 39.991684 ] } },
{ "type": "Feature", "properties": { "placekey": "zzw-222@628-pgg-p5f", "totalVisitors": 2321.0 }, "geometry": { "type": "Point", "coordinates": [ -75.179813, 40.004813 ] } },
{ "type": "Feature", "properties": { "placekey": "zzw-222@628-pgh-cdv", "totalVisitors": 3574.0 }, "geometry": { "type": "Point", "coordinates": [ -75.152629, 40.001165 ] } },
{ "type": "Feature", "properties": { "placekey": "zzw-222@628-pgh-ghq", "totalVisitors": 2376.0 }, "geometry": { "type": "Point", "coordinates": [ -75.176902, 40.010508 ] } },
{ "type": "Feature", "properties": { "placekey": "zzw-222@628-pgh-vs5", "totalVisitors": 1914.0 }, "geometry": { "type": "Point", "coordinates": [ -75.154126, 39.982569 ] } },
{ "type": "Feature", "properties": { "placekey": "zzw-222@628-pgj-249", "totalVisitors": 2863.0 }, "geometry": { "type": "Point", "coordinates": [ -75.156558, 39.977914 ] } },