{
"type": "FeatureCollection",
"name": "PermittableSpace",
"crs": { "type": "name", "properties": { "name": "urn:ogc:def:crs:OGC:1.3:CRS84" } },
"features": [
{ "type": "Feature", "properties": { "OBJECTID": 1, "ASSET_NAME": "John F. Kennedy Plaza", "SITE_NUMBE": 1, "PSPACETYPE": "Park A Site", "CAPACITY": 100, "DSCRIPTION": " ", "DPP_ASSET_": 205, "SPACE_GLOBAL_ID": "{f8597a71-2e41-4d50-a6d8-156cd6b70d36}" }, "geometry": { "type": "Point", "coordinates": [ -75.165726323064206, 39.954215900475099 ] } },
{ "type": "Feature", "properties": { "OBJECTID": 2, "ASSET_NAME": "Boathouse Row", "SITE_NUMBE": 1, "PSPACETYPE": "Route", "CAPACITY": 100, "DSCRIPTION": " ", "DPP_ASSET_": 1713, "SPACE_GLOBAL_ID": "{95ba9690-659e-473c-8841-c3cda4dafce1}" }, "geometry": { "type": "Point", "coordinates": [ -75.187396324247203, 39.969444449150501 ] } },
{ "type": "Feature", "properties": { "OBJECTID": 3, "ASSET_NAME": "Eakins Oval", "SITE_NUMBE": 1, "PSPACETYPE": "Park A Site", "CAPACITY": 100, "DSCRIPTION": " ", "DPP_ASSET_": 1850, "SPACE_GLOBAL_ID": "{9016010e-91c0-48ed-94f0-2899fd1810c3}" }, "geometry": { "type": "Point", "coordinates": [ -75.178523059297902, 39.963804711978803 ] } },
{ "type": "Feature", "properties": { "OBJECTID": 4, "ASSET_NAME": "Aviator Park", "SITE_NUMBE": 1, "PSPACETYPE": "Neighborhood Park", "CAPACITY": 100, "DSCRIPTION": " ", "DPP_ASSET_": 2817, "SPACE_GLOBAL_ID": "{0ee268e5-a069-4e51-adab-b284f515e637}" }, "geometry": { "type": "Point", "coordinates": [ -75.171807950037703, 39.957959669489199 ] } },
{ "type": "Feature", "properties": { "OBJECTID": 5, "ASSET_NAME": "Belmont Plateau cross country trail", "SITE_NUMBE": 1, "PSPACETYPE": "Route", "CAPACITY": 100, "DSCRIPTION": " ", "DPP_ASSET_": 1818, "SPACE_GLOBAL_ID": "{25064f13-d380-40cd-8902-a2aebfbefd43}" }, "geometry": { "type": "Point", "coordinates": [ -75.209865449161001, 39.989496984963601 ] } },
{ "type": "Feature", "properties": { "OBJECTID": 6, "ASSET_NAME": "Campbell Square Park", "SITE_NUMBE": 1, "PSPACETYPE": "Neighborhood Park", "CAPACITY": 100, "DSCRIPTION": " ", "DPP_ASSET_": 1128, "SPACE_GLOBAL_ID": "{6370e6e9-94c3-46da-95e9-ebb0e7bc767e}" }, "geometry": { "type": "Point", "coordinates": [ -75.103386455559004, 39.986272851913803 ] } },
{ "type": "Feature", "properties": { "OBJECTID": 7, "ASSET_NAME": "Venice Island Theater", "SITE_NUMBE": 1, "PSPACETYPE": "Theatre", "CAPACITY": 250, "DSCRIPTION": " ", "DPP_ASSET_": 3448, "SPACE_GLOBAL_ID": "{105913e4-6532-4cfa-82a4-e54ca8e92756}" }, "geometry": { "type": "Point", "coordinates": [ -75.222224439561899, 40.0234925754812 ] } },
{ "type": "Feature", "properties": { "OBJECTID": 8, "ASSET_NAME": "Venice Island Multipurpose room 1", "SITE_NUMBE": 1, "PSPACETYPE": "Multipurpose Room", "CAPACITY": 50, "DSCRIPTION": " ", "DPP_ASSET_": 3448, "SPACE_GLOBAL_ID": "{478d93c0-fd06-4cf8-b24d-830fff04d72e}" }, "geometry": { "type": "Point", "coordinates": [ -75.222224439561899, 40.0234925754812 ] } },
{ "type": "Feature", "properties": { "OBJECTID": 9, "ASSET_NAME": "Venice Island Multipurpose room 2", "SITE_NUMBE": 2, "PSPACETYPE": "Multipurpose Room", "CAPACITY": 50, "DSCRIPTION": " ", "DPP_ASSET_": 3448, "SPACE_GLOBAL_ID": "{674a19b0-ab49-44a6-ada0-0a6b60968481}" }, "geometry": { "type": "Point", "coordinates": [ -75.222224439561899, 40.0234925754812 ] } },
{ "type": "Feature", "properties": { "OBJECTID": 10, "ASSET_NAME": "33rd & Cecil B. Moore Picnic Site 2", "SITE_NUMBE": 2, "PSPACETYPE": "Picnic Site", "CAPACITY": 50, "DSCRIPTION": " ", "DPP_ASSET_": 1713, "SPACE_GLOBAL_ID": "{c21625b4-875c-4e39-9f86-9811c7c70cc7}" }, "geometry": { "type": "Point", "coordinates": [ -75.188926645818896, 39.9830981746817 ] } },
{ "type": "Feature", "properties": { "OBJECTID": 11, "ASSET_NAME": "Belmont Grove picnic pavillion 2", "SITE_NUMBE": 2, "PSPACETYPE": "Grove Picnic Pavilion", "CAPACITY": 250, "DSCRIPTION": " ", "DPP_ASSET_": 3630, "SPACE_GLOBAL_ID": "{86a4be57-895b-45c2-86a7-fa8efc885cc8}" }, "geometry": { "type": "Point", "coordinates": [ -75.215432247456704, 39.9919297952408 ] } },
{ "type": "Feature", "properties": { "OBJECTID": 12, "ASSET_NAME": "Belmont Grove picnic pavillion 1", "SITE_NUMBE": 1, "PSPACETYPE": "Grove Picnic Pavilion", "CAPACITY": 250, "DSCRIPTION": " ", "DPP_ASSET_": 3630, "SPACE_GLOBAL_ID": "{42ce3983-f67c-43b2-b1c4-bb3bc68bf458}" }, "geometry": { "type": "Point", "coordinates": [ -75.2150010225659, 39.992544610633502 ] } },
{ "type": "Feature", "properties": { "OBJECTID": 13, "ASSET_NAME": "FDR Park Boathouse pavillion", "SITE_NUMBE": 1, "PSPACETYPE": "Picnic Pavilion", "CAPACITY": 120, "DSCRIPTION": " ", "DPP_ASSET_": 231, "SPACE_GLOBAL_ID": "{d8f5a415-f295-42c9-a361-ef5d441989bc}" }, "geometry": { "type": "Point", "coordinates": [ -75.181655627141893, 39.903812887454599 ] } },
{ "type": "Feature", "properties": { "OBJECTID": 14, "ASSET_NAME": "Ford road picnic pavillion", "SITE_NUMBE": 1, "PSPACETYPE": "Picnic Pavilion", "CAPACITY": 120, "DSCRIPTION": " ", "DPP_ASSET_": 2899, "SPACE_GLOBAL_ID": "{bf9e0435-3aeb-488a-8c0d-279fa0ce4050}" }, "geometry": { "type": "Point", "coordinates": [ -75.2061307266668, 39.999457505577297 ] } },
{ "type": "Feature", "properties": { "OBJECTID": 15, "ASSET_NAME": "Gorgas Park pavillion", "SITE_NUMBE": 1, "PSPACETYPE": "Picnic Pavilion", "CAPACITY": 120, "DSCRIPTION": " ", "DPP_ASSET_": 803, "SPACE_GLOBAL_ID": "{ac5b63c0-ace2-4d52-b130-f0ac3ea93515}" }, "geometry": { "type": "Point", "coordinates": [ -75.221646516870393, 40.036526564007303 ] } },
{ "type": "Feature", "properties": { "OBJECTID": 16, "ASSET_NAME": "Malcolm X Memorial Park picnic pavillion", "SITE_NUMBE": 1, "PSPACETYPE": "Picnic Pavilion", "CAPACITY": 120, "DSCRIPTION": " ", "DPP_ASSET_": 182, "SPACE_GLOBAL_ID": "{e7607c27-1856-4a67-932e-ded9951f857c}" }, "geometry": { "type": "Point", "coordinates": [ -75.225425238004206, 39.952676629547803 ] } },
{ "type": "Feature", "properties": { "OBJECTID": 17, "ASSET_NAME": "Fernhill Park picnic pavilion 2", "SITE_NUMBE": 2, "PSPACETYPE": "Picnic Site", "CAPACITY": 50, "DSCRIPTION": " ", "DPP_ASSET_": 833, "SPACE_GLOBAL_ID": "{cfadca9c-518f-442b-bde2-4739420d7292}" }, "geometry": { "type": "Point", "coordinates": [ -75.169008965965304, 40.019620354555698 ] } },
{ "type": "Feature", "properties": { "OBJECTID": 18, "ASSET_NAME": "Fernhill Park picnic site 3", "SITE_NUMBE": 3, "PSPACETYPE": "Picnic Site", "CAPACITY": 50, "DSCRIPTION": " ", "DPP_ASSET_": 833, "SPACE_GLOBAL_ID": "{79789e40-8c5e-4857-91f1-0d34500b8fb3}" }, "geometry": { "type": "Point", "coordinates": [ -75.169555719096095, 40.0193118459568 ] } },
{ "type": "Feature", "properties": { "OBJECTID": 19, "ASSET_NAME": "Blue Bell Area picnic site 3", "SITE_NUMBE": 3, "PSPACETYPE": "Picnic Site", "CAPACITY": 50, "DSCRIPTION": " ", "DPP_ASSET_": 1311, "SPACE_GLOBAL_ID": "{c201aa96-dfcb-4c0a-b33b-53d14e8c4cef}" }, "geometry": { "type": "Point", "coordinates": [ -75.195820466032401, 40.032024369261201 ] } },
{ "type": "Feature", "properties": { "OBJECTID": 20, "ASSET_NAME": "Blue Bell Area picnic site 2", "SITE_NUMBE": 2, "PSPACETYPE": "Picnic Site", "CAPACITY": 50, "DSCRIPTION": " ", "DPP_ASSET_": 1311, "SPACE_GLOBAL_ID": "{39ac9377-954a-49df-a691-37936d4aaab5}" }, "geometry": { "type": "Point", "coordinates": [ -75.195410659030202, 40.031558788703002 ] } },
{ "type": "Feature", "properties": { "OBJECTID": 21, "ASSET_NAME": "Blue Bell Area picnic pavilion", "SITE_NUMBE": 1, "PSPACETYPE": "Picnic Site", "CAPACITY": 50, "DSCRIPTION": " ", "DPP_ASSET_": 1311, "SPACE_GLOBAL_ID": "{3511a439-53c2-4505-9dd9-63fce74ffc4f}" }, "geometry": { "type": "Point", "coordinates": [ -75.1952520407836, 40.031241825262903 ] } },
{ "type": "Feature", "properties": { "OBJECTID": 22, "ASSET_NAME": "Blue Bell Area picnic site 4", "SITE_NUMBE": 4, "PSPACETYPE": "Picnic Site", "CAPACITY": 50, "DSCRIPTION": " ", "DPP_ASSET_": 1311, "SPACE_GLOBAL_ID": "{724f8647-3a71-448f-a3f7-8a24309dd901}" }, "geometry": { "type": "Point", "coordinates": [ -75.194951363423698, 40.030732110920702 ] } },
{ "type": "Feature", "properties": { "OBJECTID": 23, "ASSET_NAME": "Blue Bell Area picnic site 5", "SITE_NUMBE": 5, "PSPACETYPE": "Picnic Site", "CAPACITY": 50, "DSCRIPTION": " ", "DPP_ASSET_": 1311, "SPACE_GLOBAL_ID": "{f50b3904-3307-4cd3-b348-7d8a939d8f85}" }, "geometry": { "type": "Point", "coordinates": [ -75.195227229760604, 40.030608641006602 ] } },
{ "type": "Feature", "properties": { "OBJECTID": 24, "ASSET_NAME": "Blue Bell Area picnic site 6", "SITE_NUMBE": 6, "PSPACETYPE": "Picnic Site", "CAPACITY": 50, "DSCRIPTION": " ", "DPP_ASSET_": 1311, "SPACE_GLOBAL_ID": "{a7002790-4cc7-46f7-a07f-f315fce51016}" }, "geometry": { "type": "Point", "coordinates": [ -75.1951259017669, 40.030420547501599 ] } },
{ "type": "Feature", "properties": { "OBJECTID": 25, "ASSET_NAME": "David Montgomery Field picnic site 1", "SITE_NUMBE": 1, "PSPACETYPE": "Picnic Site", "CAPACITY": 50, "DSCRIPTION": " ", "DPP_ASSET_": 3065, "SPACE_GLOBAL_ID": "{16277d93-d477-4212-9bba-94ad51632c3e}" }, "geometry": { "type": "Point", "coordinates": [ -75.2033412035628, 40.022099373270301 ] } },
{ "type": "Feature", "properties": { "OBJECTID": 26, "ASSET_NAME": "Pachella Memorial Fields picnic pavillions", "SITE_NUMBE": 1, "PSPACETYPE": "Picnic Pavilion", "CAPACITY": 50, "DSCRIPTION": " ", "DPP_ASSET_": 1925, "SPACE_GLOBAL_ID": "{e85df7a7-7ad9-4846-82ea-68afe87768cf}" }, "geometry": { "type": "Point", "coordinates": [ -75.215883802160704, 40.045829341312803 ] } },
{ "type": "Feature", "properties": { "OBJECTID": 27, "ASSET_NAME": "Wissahickon Valley Park Wises Mill Road picnic site 2", "SITE_NUMBE": 2, "PSPACETYPE": "Picnic Site", "CAPACITY": 50, "DSCRIPTION": " ", "DPP_ASSET_": 1357, "SPACE_GLOBAL_ID": "{7925ac26-2697-4705-af2c-b81433b997e6}" }, "geometry": { "type": "Point", "coordinates": [ -75.220443601907803, 40.058891351074401 ] } },
{ "type": "Feature", "properties": { "OBJECTID": 28, "ASSET_NAME": "Wister's Woods Park picnic site 1", "SITE_NUMBE": 1, "PSPACETYPE": "Picnic Site", "CAPACITY": 50, "DSCRIPTION": " ", "DPP_ASSET_": 875, "SPACE_GLOBAL_ID": "{13f66de5-5985-471f-8393-a0db0e16ea04}" }, "geometry": { "type": "Point", "coordinates": [ -75.154776400815706, 40.031826957172797 ] } },
{ "type": "Feature", "properties": { "OBJECTID": 29, "ASSET_NAME": "Wister's Woods Park picnic site 2", "SITE_NUMBE": 2, "PSPACETYPE": "Picnic Site", "CAPACITY": 50, "DSCRIPTION": " ", "DPP_ASSET_": 875, "SPACE_GLOBAL_ID": "{b2995624-4b1a-45d3-bc81-4bfdfda83271}" }, "geometry": { "type": "Point", "coordinates": [ -75.155401099586996, 40.0324283614382 ] } },
{ "type": "Feature", "properties": { "OBJECTID": 30, "ASSET_NAME": "Wister's Woods Park picnic site 3", "SITE_NUMBE": 3, "PSPACETYPE": "Picnic Site", "CAPACITY": 50, "DSCRIPTION": " ", "DPP_ASSET_": 875, "SPACE_GLOBAL_ID": "{d32b0070-b6b1-4f23-99fe-62824063e0d1}" }, "geometry": { "type": "Point", "coordinates": [ -75.155486285828999, 40.033384026192699 ] } },
{ "type": "Feature", "properties": { "OBJECTID": 31, "ASSET_NAME": "Awbury Park & Recreation Center picnic site 2", "SITE_NUMBE": 2, "PSPACETYPE": "Picnic Site", "CAPACITY": 50, "DSCRIPTION": " ", "DPP_ASSET_": 604, "SPACE_GLOBAL_ID": "{c71cb001-8ac9-4782-9669-84233bfca9a8}" }, "geometry": { "type": "Point", "coordinates": [ -75.163559418292607, 40.052289749582201 ] } },
{ "type": "Feature", "properties": { "OBJECTID": 32, "ASSET_NAME": "Awbury Park & Recreation Center picnic site 3", "SITE_NUMBE": 3, "PSPACETYPE": "Picnic Site", "CAPACITY": 50, "DSCRIPTION": " ", "DPP_ASSET_": 604, "SPACE_GLOBAL_ID": "{bb865ed6-5dad-4204-b550-2c068e445b5e}" }, "geometry": { "type": "Point", "coordinates": [ -75.163279630204798, 40.0523216432887 ] } },
{ "type": "Feature", "properties": { "OBJECTID": 33, "ASSET_NAME": "Awbury Park & Recreation Center picnic site 1", "SITE_NUMBE": 1, "PSPACETYPE": "Picnic Site", "CAPACITY": 50, "DSCRIPTION": " ", "DPP_ASSET_": 604, "SPACE_GLOBAL_ID": "{cb2f9a91-06d2-4023-bb94-73e439ff94c2}" }, "geometry": { "type": "Point", "coordinates": [ -75.1631746058804, 40.051966837263898 ] } },
{ "type": "Feature", "properties": { "OBJECTID": 34, "ASSET_NAME": "Fisher Park picnic site 1", "SITE_NUMBE": 1, "PSPACETYPE": "Picnic Site", "CAPACITY": 50, "DSCRIPTION": " ", "DPP_ASSET_": 679, "SPACE_GLOBAL_ID": "{8ba1fdf9-8ae2-463f-b7a6-8db99b442b33}" }, "geometry": { "type": "Point", "coordinates": [ -75.130881219884202, 40.043056144067002 ] } },
{ "type": "Feature", "properties": { "OBJECTID": 35, "ASSET_NAME": "Fisher Park picnic site 2", "SITE_NUMBE": 2, "PSPACETYPE": "Picnic Site", "CAPACITY": 50, "DSCRIPTION": " ", "DPP_ASSET_": 679, "SPACE_GLOBAL_ID": "{2473fb7e-e98c-4015-9e9e-743632474f2d}" }, "geometry": { "type": "Point", "coordinates": [ -75.131094363248707, 40.042951621359997 ] } },
{ "type": "Feature", "properties": { "OBJECTID": 36, "ASSET_NAME": "Burholme Park picnic site 2", "SITE_NUMBE": 2, "PSPACETYPE": "Picnic Site", "CAPACITY": 50, "DSCRIPTION": " ", "DPP_ASSET_": 490, "SPACE_GLOBAL_ID": "{4939f81f-066d-4662-b81b-49b66e795a7d}" }, "geometry": { "type": "Point", "coordinates": [ -75.089279601836196, 40.069203397150098 ] } },
{ "type": "Feature", "properties": { "OBJECTID": 37, "ASSET_NAME": "Burholme Park picnic site 3", "SITE_NUMBE": 3, "PSPACETYPE": "Picnic Site", "CAPACITY": 50, "DSCRIPTION": " ", "DPP_ASSET_": 490, "SPACE_GLOBAL_ID": "{92d61bcd-0a86-4dda-8652-c7de69c56bf7}" }, "geometry": { "type": "Point", "coordinates": [ -75.089697909205299, 40.069487094005602 ] } },
{ "type": "Feature", "properties": { "OBJECTID": 38, "ASSET_NAME": "Burholme Park picnic site 1", "SITE_NUMBE": 1, "PSPACETYPE": "Picnic Pavilion", "CAPACITY": 50, "DSCRIPTION": " ", "DPP_ASSET_": 490, "SPACE_GLOBAL_ID": "{37464a8b-d15d-4a3b-b6a9-a1164898c4cf}" }, "geometry": { "type": "Point", "coordinates": [ -75.089221741497099, 40.067073369609197 ] } },
{ "type": "Feature", "properties": { "OBJECTID": 39, "ASSET_NAME": "Burholme Park picnic site 4", "SITE_NUMBE": 4, "PSPACETYPE": "Picnic Site", "CAPACITY": 50, "DSCRIPTION": " ", "DPP_ASSET_": 490, "SPACE_GLOBAL_ID": "{daaeff5c-6f6d-47aa-bbec-2ac979da9a3d}" }, "geometry": { "type": "Point", "coordinates": [ -75.091272670257794, 40.069719152150299 ] } },
{ "type": "Feature", "properties": { "OBJECTID": 40, "ASSET_NAME": "Burholme Park picnic site 5", "SITE_NUMBE": 5, "PSPACETYPE": "Picnic Site", "CAPACITY": 50, "DSCRIPTION": " ", "DPP_ASSET_": 490, "SPACE_GLOBAL_ID": "{47bc744c-376b-482d-ac32-6f7a9d3e076b}" }, "geometry": { "type": "Point", "coordinates": [ -75.091868934175693, 40.069964259873501 ] } },
{ "type": "Feature", "properties": { "OBJECTID": 41, "ASSET_NAME": "Hunting Park picnic site 6", "SITE_NUMBE": 6, "PSPACETYPE": "Picnic Site", "CAPACITY": 50, "DSCRIPTION": " ", "DPP_ASSET_": 845, "SPACE_GLOBAL_ID": "{b512739f-bb48-492f-9786-0472495890b6}" }, "geometry": { "type": "Point", "coordinates": [ -75.143420036239604, 40.016981214094002 ] } },
{ "type": "Feature", "properties": { "OBJECTID": 42, "ASSET_NAME": "Hunting Park picnic site 2", "SITE_NUMBE": 2, "PSPACETYPE": "Picnic Site", "CAPACITY": 50, "DSCRIPTION": " ", "DPP_ASSET_": 845, "SPACE_GLOBAL_ID": "{5f9951cf-1aaf-43c1-8b37-7b2fb86c8708}" }, "geometry": { "type": "Point", "coordinates": [ -75.145092330288904, 40.016955235899196 ] } },
{ "type": "Feature", "properties": { "OBJECTID": 43, "ASSET_NAME": "Hunting Park picnic site 3", "SITE_NUMBE": 3, "PSPACETYPE": "Picnic Site", "CAPACITY": 50, "DSCRIPTION": " ", "DPP_ASSET_": 845, "SPACE_GLOBAL_ID": "{db3bf64a-7afb-445e-a20d-c77f37c86a48}" }, "geometry": { "type": "Point", "coordinates": [ -75.145785359707901, 40.017310767563202 ] } },
{ "type": "Feature", "properties": { "OBJECTID": 44, "ASSET_NAME": "Hunting Park picnic pavilion", "SITE_NUMBE": 1, "PSPACETYPE": "Picnic Site", "CAPACITY": 50, "DSCRIPTION": " ", "DPP_ASSET_": 845, "SPACE_GLOBAL_ID": "{7a72028f-da3a-46ab-89e9-f36a42d1b8d0}" }, "geometry": { "type": "Point", "coordinates": [ -75.144579332967695, 40.015636580237903 ] } },
{ "type": "Feature", "properties": { "OBJECTID": 45, "ASSET_NAME": "Hunting Park picnic site 4", "SITE_NUMBE": 4, "PSPACETYPE": "Picnic Site", "CAPACITY": 50, "DSCRIPTION": " ", "DPP_ASSET_": 845, "SPACE_GLOBAL_ID": "{7ddd8aeb-b65c-4f1b-a4e3-55f1ebc931a6}" }, "geometry": { "type": "Point", "coordinates": [ -75.142885125788894, 40.0158598195626 ] } },
{ "type": "Feature", "properties": { "OBJECTID": 46, "ASSET_NAME": "Cobbs Creek Blue Bell Tavern picnic site 1", "SITE_NUMBE": 1, "PSPACETYPE": "Picnic Site", "CAPACITY": 50, "DSCRIPTION": " ", "DPP_ASSET_": 3056, "SPACE_GLOBAL_ID": "{593314bb-3d61-4992-ab2a-907271ea6515}" }, "geometry": { "type": "Point", "coordinates": [ -75.246149051680106, 39.9175069109193 ] } },
{ "type": "Feature", "properties": { "OBJECTID": 47, "ASSET_NAME": "Tugboat House at Belmont Landing picnic site 5", "SITE_NUMBE": 5, "PSPACETYPE": "Picnic Site", "CAPACITY": 50, "DSCRIPTION": " ", "DPP_ASSET_": 1714, "SPACE_GLOBAL_ID": "{bca3d343-2377-40d1-8a73-5f41bba6e1ea}" }, "geometry": { "type": "Point", "coordinates": [ -75.205028001305905, 39.982390632191397 ] } },
{ "type": "Feature", "properties": { "OBJECTID": 48, "ASSET_NAME": "Rhawn Street Picnic Area site 3", "SITE_NUMBE": 3, "PSPACETYPE": "Picnic Site", "CAPACITY": 50, "DSCRIPTION": " ", "DPP_ASSET_": 1651, "SPACE_GLOBAL_ID": "{3d5f88cc-fe87-49c2-9738-07db8ecd5cfe}" }, "geometry": { "type": "Point", "coordinates": [ -75.0353370949111, 40.049950146512998 ] } },
{ "type": "Feature", "properties": { "OBJECTID": 49, "ASSET_NAME": "Rhawn Street Picnic Area site 2", "SITE_NUMBE": 2, "PSPACETYPE": "Picnic Site", "CAPACITY": 50, "DSCRIPTION": " ", "DPP_ASSET_": 1651, "SPACE_GLOBAL_ID": "{814c4478-4ae8-4651-898f-3768861f178b}" }, "geometry": { "type": "Point", "coordinates": [ -75.0357298532534, 40.049780333964399 ] } },
{ "type": "Feature", "properties": { "OBJECTID": 50, "ASSET_NAME": "Rhawn Street Picnic Area pavilion", "SITE_NUMBE": 1, "PSPACETYPE": "Picnic Site", "CAPACITY": 50, "DSCRIPTION": " ", "DPP_ASSET_": 1651, "SPACE_GLOBAL_ID": "{d7578648-488d-45b2-a4ed-139011ff0730}" }, "geometry": { "type": "Point", "coordinates": [ -75.036650377362605, 40.049556958832198 ] } },
{ "type": "Feature", "properties": { "OBJECTID": 51, "ASSET_NAME": "33rd & Cecil B. Moore picnic site 1", "SITE_NUMBE": 1, "PSPACETYPE": "Picnic Site", "CAPACITY": 50, "DSCRIPTION": " ", "DPP_ASSET_": 1713, "SPACE_GLOBAL_ID": "{961e06d4-e37d-4eb0-ab75-0b69feabf680}" }, "geometry": { "type": "Point", "coordinates": [ -75.188996060530997, 39.982066639335201 ] } },
{ "type": "Feature", "properties": { "OBJECTID": 52, "ASSET_NAME": "Rhawn Street Picnic Area site 4", "SITE_NUMBE": 4, "PSPACETYPE": "Picnic Site", "CAPACITY": 50, "DSCRIPTION": " ", "DPP_ASSET_": 1651, "SPACE_GLOBAL_ID": "{37c8b27a-f51d-4289-a87e-d3b83e758d59}" }, "geometry": { "type": "Point", "coordinates": [ -75.033382388826496, 40.049946227159097 ] } },
{ "type": "Feature", "properties": { "OBJECTID": 53, "ASSET_NAME": "Rhawn Street Picnic Area site 5", "SITE_NUMBE": 5, "PSPACETYPE": "Picnic Site", "CAPACITY": 50, "DSCRIPTION": " ", "DPP_ASSET_": 1651, "SPACE_GLOBAL_ID": "{1c9ac726-9fd9-4925-9314-5169e421704c}" }, "geometry": { "type": "Point", "coordinates": [ -75.033124826084901, 40.050318713515999 ] } },
{ "type": "Feature", "properties": { "OBJECTID": 54, "ASSET_NAME": "Pennypack on the Delaware picnic site 1", "SITE_NUMBE": 1, "PSPACETYPE": "Picnic Site", "CAPACITY": 50, "DSCRIPTION": " ", "DPP_ASSET_": 1932, "SPACE_GLOBAL_ID": "{1c5455e7-212a-4235-95fc-b801f2ea77fc}" }, "geometry": { "type": "Point", "coordinates": [ -75.013445054361995, 40.0268184820169 ] } },
{ "type": "Feature", "properties": { "OBJECTID": 55, "ASSET_NAME": "Pennypack on the Delaware picnic site 2", "SITE_NUMBE": 2, "PSPACETYPE": "Picnic Site", "CAPACITY": 50, "DSCRIPTION": " ", "DPP_ASSET_": 1932, "SPACE_GLOBAL_ID": "{29115ebf-5f99-490a-8da4-62e3b7f6670e}" }, "geometry": { "type": "Point", "coordinates": [ -75.012895425849393, 40.026913044522097 ] } },
{ "type": "Feature", "properties": { "OBJECTID": 56, "ASSET_NAME": "Pennypack on the Delaware picnic site 3", "SITE_NUMBE": 3, "PSPACETYPE": "Picnic Site", "CAPACITY": 50, "DSCRIPTION": " ", "DPP_ASSET_": 1932, "SPACE_GLOBAL_ID": "{70c0c686-7928-4815-8651-798988eaa43e}" }, "geometry": { "type": "Point", "coordinates": [ -75.012084839710099, 40.027400698993297 ] } },
{ "type": "Feature", "properties": { "OBJECTID": 57, "ASSET_NAME": "Pennypack on the Delaware picnic site 5", "SITE_NUMBE": 5, "PSPACETYPE": "Picnic Site", "CAPACITY": 50, "DSCRIPTION": " ", "DPP_ASSET_": 1932, "SPACE_GLOBAL_ID": "{e4c9d9a0-544a-4c1d-8e1b-51e4ff81a32d}" }, "geometry": { "type": "Point", "coordinates": [ -75.0121331989927, 40.027720013825203 ] } },
{ "type": "Feature", "properties": { "OBJECTID": 58, "ASSET_NAME": "Pennypack on the Delaware picnic site 4", "SITE_NUMBE": 4, "PSPACETYPE": "Picnic Site", "CAPACITY": 50, "DSCRIPTION": " ", "DPP_ASSET_": 1932, "SPACE_GLOBAL_ID": "{7efc368e-6431-4bb9-a9f7-77f1962b463c}" }, "geometry": { "type": "Point", "coordinates": [ -75.011404716495605, 40.027778204912501 ] } },
{ "type": "Feature", "properties": { "OBJECTID": 59, "ASSET_NAME": "Pennypack on the Delaware picnic site 6", "SITE_NUMBE": 6, "PSPACETYPE": "Picnic Site", "CAPACITY": 50, "DSCRIPTION": " ", "DPP_ASSET_": 1932, "SPACE_GLOBAL_ID": "{f44a6abb-2529-4ef8-a7d0-e5cc60149af1}" }, "geometry": { "type": "Point", "coordinates": [ -75.011356006506603, 40.027977956489899 ] } },
{ "type": "Feature", "properties": { "OBJECTID": 60, "ASSET_NAME": "Penn Treaty Park picnic site 1", "SITE_NUMBE": 1, "PSPACETYPE": "Picnic Site", "CAPACITY": 50, "DSCRIPTION": " ", "DPP_ASSET_": 317, "SPACE_GLOBAL_ID": "{534328be-b432-48c5-a13d-8bffeed7927d}" }, "geometry": { "type": "Point", "coordinates": [ -75.128400550162098, 39.966928389293102 ] } },
{ "type": "Feature", "properties": { "OBJECTID": 61, "ASSET_NAME": "Penn Treaty Park picnic site 2", "SITE_NUMBE": 2, "PSPACETYPE": "Picnic Site", "CAPACITY": 50, "DSCRIPTION": " ", "DPP_ASSET_": 317, "SPACE_GLOBAL_ID": "{4366cbaa-a21f-4b0a-99aa-60ec11c509a5}" }, "geometry": { "type": "Point", "coordinates": [ -75.128397800432197, 39.966755621252403 ] } },
{ "type": "Feature", "properties": { "OBJECTID": 62, "ASSET_NAME": "Lemon Hill picnic site 8", "SITE_NUMBE": 8, "PSPACETYPE": "Picnic Site", "CAPACITY": 50, "DSCRIPTION": " ", "DPP_ASSET_": 1713, "SPACE_GLOBAL_ID": "{64265843-3f57-4a44-bd8c-248736c9b0bc}" }, "geometry": { "type": "Point", "coordinates": [ -75.187272250984805, 39.972401812772901 ] } },
{ "type": "Feature", "properties": { "OBJECTID": 63, "ASSET_NAME": "Lemon Hill picnic site 5", "SITE_NUMBE": 5, "PSPACETYPE": "Picnic Site", "CAPACITY": 50, "DSCRIPTION": " ", "DPP_ASSET_": 1713, "SPACE_GLOBAL_ID": "{0009b4c1-9eca-485e-9876-6bad9a68ed74}" }, "geometry": { "type": "Point", "coordinates": [ -75.187840007346693, 39.972082990248197 ] } },
{ "type": "Feature", "properties": { "OBJECTID": 64, "ASSET_NAME": "Lemon Hill picnic pavilion", "SITE_NUMBE": 1, "PSPACETYPE": "Picnic Pavilion", "CAPACITY": 50, "DSCRIPTION": " ", "DPP_ASSET_": 1713, "SPACE_GLOBAL_ID": "{b6e0b55d-d394-435d-bbcd-bb583550492b}" }, "geometry": { "type": "Point", "coordinates": [ -75.187830050153593, 39.971753822192802 ] } },
{ "type": "Feature", "properties": { "OBJECTID": 65, "ASSET_NAME": "Lemon Hill picnic site 6", "SITE_NUMBE": 6, "PSPACETYPE": "Picnic Site", "CAPACITY": 50, "DSCRIPTION": " ", "DPP_ASSET_": 1713, "SPACE_GLOBAL_ID": "{2a7eb285-d4b5-4556-993b-5ba05a38ba3e}" }, "geometry": { "type": "Point", "coordinates": [ -75.1881690694334, 39.972393336556202 ] } },
{ "type": "Feature", "properties": { "OBJECTID": 66, "ASSET_NAME": "Lemon Hill picnic site 7", "SITE_NUMBE": 7, "PSPACETYPE": "Picnic Site", "CAPACITY": 50, "DSCRIPTION": " ", "DPP_ASSET_": 1713, "SPACE_GLOBAL_ID": "{6737070a-4564-4360-9875-43b511b79b2c}" }, "geometry": { "type": "Point", "coordinates": [ -75.188744554037001, 39.971749801012102 ] } },
{ "type": "Feature", "properties": { "OBJECTID": 67, "ASSET_NAME": "Lemon Hill picnic site 2", "SITE_NUMBE": 2, "PSPACETYPE": "Picnic Site", "CAPACITY": 50, "DSCRIPTION": " ", "DPP_ASSET_": 1713, "SPACE_GLOBAL_ID": "{3922a7d8-bc0c-471b-adb0-a246a05020f2}" }, "geometry": { "type": "Point", "coordinates": [ -75.188487744434397, 39.9713857896663 ] } },
{ "type": "Feature", "properties": { "OBJECTID": 68, "ASSET_NAME": "North Georges Hill picnic pavilion", "SITE_NUMBE": 1, "PSPACETYPE": "Picnic Pavilion", "CAPACITY": 50, "DSCRIPTION": " ", "DPP_ASSET_": 1714, "SPACE_GLOBAL_ID": "{0f4326a0-c2c5-49a5-b10d-7bcf72845257}" }, "geometry": { "type": "Point", "coordinates": [ -75.222868675213107, 39.987092336519602 ] } },
{ "type": "Feature", "properties": { "OBJECTID": 69, "ASSET_NAME": "North Georges Hill picnic site 2", "SITE_NUMBE": 2, "PSPACETYPE": "Picnic Site", "CAPACITY": 50, "DSCRIPTION": " ", "DPP_ASSET_": 1714, "SPACE_GLOBAL_ID": "{ef578eaa-b2bb-49b3-ac46-5f9121d09369}" }, "geometry": { "type": "Point", "coordinates": [ -75.222982369747996, 39.986678272330799 ] } },
{ "type": "Feature", "properties": { "OBJECTID": 70, "ASSET_NAME": "Tugboat House at Belmont Landing picnic site 2", "SITE_NUMBE": 2, "PSPACETYPE": "Picnic Site", "CAPACITY": 50, "DSCRIPTION": " ", "DPP_ASSET_": 1714, "SPACE_GLOBAL_ID": "{3846bb57-0c0d-447f-83ca-f975530eadfb}" }, "geometry": { "type": "Point", "coordinates": [ -75.204784152395803, 39.981341246973898 ] } },
{ "type": "Feature", "properties": { "OBJECTID": 71, "ASSET_NAME": "Tugboat House at Belmont Landing picnic site 4", "SITE_NUMBE": 4, "PSPACETYPE": "Picnic Site", "CAPACITY": 50, "DSCRIPTION": " ", "DPP_ASSET_": 1714, "SPACE_GLOBAL_ID": "{716bbc7e-3d12-4873-8e77-465025e94bd0}" }, "geometry": { "type": "Point", "coordinates": [ -75.205267789001795, 39.982166440274902 ] } },
{ "type": "Feature", "properties": { "OBJECTID": 72, "ASSET_NAME": "Mander Playground picnic site 2", "SITE_NUMBE": 2, "PSPACETYPE": "Picnic Site", "CAPACITY": 50, "DSCRIPTION": " ", "DPP_ASSET_": 1900, "SPACE_GLOBAL_ID": "{68f7bd2a-a176-46cd-97d4-6e1af8d3484d}" }, "geometry": { "type": "Point", "coordinates": [ -75.189270601252005, 39.989786280126303 ] } },
{ "type": "Feature", "properties": { "OBJECTID": 73, "ASSET_NAME": "Mander Playground picnic site 4", "SITE_NUMBE": 4, "PSPACETYPE": "Picnic Site", "CAPACITY": 50, "DSCRIPTION": " ", "DPP_ASSET_": 1900, "SPACE_GLOBAL_ID": "{cf3dbf6d-000a-46dc-b15e-8bd3217f1dcc}" }, "geometry": { "type": "Point", "coordinates": [ -75.189349245200106, 39.990905268246699 ] } },
{ "type": "Feature", "properties": { "OBJECTID": 74, "ASSET_NAME": "Mander Playground picnic site 3", "SITE_NUMBE": 3, "PSPACETYPE": "Picnic Site", "CAPACITY": 50, "DSCRIPTION": " ", "DPP_ASSET_": 1900, "SPACE_GLOBAL_ID": "{d8973cc0-e1a5-458f-a195-6de7989b9d82}" }, "geometry": { "type": "Point", "coordinates": [ -75.188637261942304, 39.991914687196903 ] } },
{ "type": "Feature", "properties": { "OBJECTID": 75, "ASSET_NAME": "Belmont Plateau picnic site 1", "SITE_NUMBE": 1, "PSPACETYPE": "Picnic Site", "CAPACITY": 50, "DSCRIPTION": " ", "DPP_ASSET_": 1818, "SPACE_GLOBAL_ID": "{1af73ce5-4746-4bbf-94b9-856989400b9b}" }, "geometry": { "type": "Point", "coordinates": [ -75.214205715751902, 39.9884194521754 ] } },
{ "type": "Feature", "properties": { "OBJECTID": 76, "ASSET_NAME": "Belmont Plateau picnic site 2", "SITE_NUMBE": 2, "PSPACETYPE": "Picnic Site", "CAPACITY": 50, "DSCRIPTION": " ", "DPP_ASSET_": 1818, "SPACE_GLOBAL_ID": "{7d9ed484-8925-4530-b396-fc165d3f3c15}" }, "geometry": { "type": "Point", "coordinates": [ -75.213795001139701, 39.988911019405499 ] } },
{ "type": "Feature", "properties": { "OBJECTID": 77, "ASSET_NAME": "Belmont Plateau picnic site 3", "SITE_NUMBE": 3, "PSPACETYPE": "Picnic Site", "CAPACITY": 50, "DSCRIPTION": " ", "DPP_ASSET_": 1818, "SPACE_GLOBAL_ID": "{d8b0e925-f988-4a38-9cc5-2c8255680983}" }, "geometry": { "type": "Point", "coordinates": [ -75.214227963079097, 39.988854424214701 ] } },
{ "type": "Feature", "properties": { "OBJECTID": 78, "ASSET_NAME": "Belmont Plateau picnic site 6", "SITE_NUMBE": 6, "PSPACETYPE": "Picnic Site", "CAPACITY": 50, "DSCRIPTION": " ", "DPP_ASSET_": 1818, "SPACE_GLOBAL_ID": "{3014f107-251e-4332-b6d2-8e8b498c68eb}" }, "geometry": { "type": "Point", "coordinates": [ -75.210654916692405, 39.989138916223801 ] } },
{ "type": "Feature", "properties": { "OBJECTID": 79, "ASSET_NAME": "Belmont Plateau picnic site 7", "SITE_NUMBE": 7, "PSPACETYPE": "Picnic Site", "CAPACITY": 50, "DSCRIPTION": " ", "DPP_ASSET_": 1818, "SPACE_GLOBAL_ID": "{93077c84-8334-4e68-a808-ddbd6cb0c67f}" }, "geometry": { "type": "Point", "coordinates": [ -75.213428957006897, 39.989922070552701 ] } },
{ "type": "Feature", "properties": { "OBJECTID": 80, "ASSET_NAME": "Cobbs Creek Florence Ave & 59th St. picnic site 1", "SITE_NUMBE": 1, "PSPACETYPE": "Picnic Site", "CAPACITY": 50, "DSCRIPTION": " ", "DPP_ASSET_": 3056, "SPACE_GLOBAL_ID": "{32660d6b-c6b8-4c30-ad86-7bc9a43bd832}" }, "geometry": { "type": "Point", "coordinates": [ -75.234259085233205, 39.937591958670502 ] } },
{ "type": "Feature", "properties": { "OBJECTID": 81, "ASSET_NAME": "Cobbs Creek Robert Wilson III Park picnic site 2", "SITE_NUMBE": 2, "PSPACETYPE": "Picnic Site", "CAPACITY": 50, "DSCRIPTION": " ", "DPP_ASSET_": 3454, "SPACE_GLOBAL_ID": "{1466be22-0cf2-4332-92e4-0f6bf875c84a}" }, "geometry": { "type": "Point", "coordinates": [ -75.245854720051, 39.943113482973203 ] } },
{ "type": "Feature", "properties": { "OBJECTID": 82, "ASSET_NAME": "Cobbs Creek Robert Wilson III Park picnic site 1", "SITE_NUMBE": 1, "PSPACETYPE": "Picnic Site", "CAPACITY": 50, "DSCRIPTION": " ", "DPP_ASSET_": 3454, "SPACE_GLOBAL_ID": "{a514b769-7329-4d92-b93f-ec8640e4be86}" }, "geometry": { "type": "Point", "coordinates": [ -75.246062725602698, 39.943592378444997 ] } },
{ "type": "Feature", "properties": { "OBJECTID": 83, "ASSET_NAME": "Rufus O. Williams Memorial Playground picnic site 1", "SITE_NUMBE": 1, "PSPACETYPE": "Picnic Site", "CAPACITY": 50, "DSCRIPTION": " ", "DPP_ASSET_": 3056, "SPACE_GLOBAL_ID": "{bbc083a7-e799-4767-b40a-d8f9b936cc6e}" }, "geometry": { "type": "Point", "coordinates": [ -75.250004538837601, 39.950705108817303 ] } },
{ "type": "Feature", "properties": { "OBJECTID": 84, "ASSET_NAME": "Rufus O. Williams Memorial Playground picnic site 2", "SITE_NUMBE": 2, "PSPACETYPE": "Picnic Site", "CAPACITY": 50, "DSCRIPTION": " ", "DPP_ASSET_": 3056, "SPACE_GLOBAL_ID": "{4f0a6fe0-9c41-4fc6-aa26-1674121651ae}" }, "geometry": { "type": "Point", "coordinates": [ -75.249920540702902, 39.950070692271098 ] } },
{ "type": "Feature", "properties": { "OBJECTID": 85, "ASSET_NAME": "Cobbs Creek Environmental Center picnic site 1", "SITE_NUMBE": 1, "PSPACETYPE": "Picnic Site", "CAPACITY": 50, "DSCRIPTION": " ", "DPP_ASSET_": 3056, "SPACE_GLOBAL_ID": "{fcd42e13-3bb7-4741-8e6c-77ec41f6d620}" }, "geometry": { "type": "Point", "coordinates": [ -75.248848301593995, 39.954011458608299 ] } },
{ "type": "Feature", "properties": { "OBJECTID": 86, "ASSET_NAME": "Cobbs Creek Environmental Center picnic site 2", "SITE_NUMBE": 2, "PSPACETYPE": "Picnic Site", "CAPACITY": 50, "DSCRIPTION": " ", "DPP_ASSET_": 3056, "SPACE_GLOBAL_ID": "{dc64e27f-6ee6-407e-b5f8-564d91217208}" }, "geometry": { "type": "Point", "coordinates": [ -75.248890890125594, 39.953853909944002 ] } },
{ "type": "Feature", "properties": { "OBJECTID": 87, "ASSET_NAME": "Cobbs Creek Environmental Center picnic site 3", "SITE_NUMBE": 3, "PSPACETYPE": "Picnic Site", "CAPACITY": 50, "DSCRIPTION": " ", "DPP_ASSET_": 3056, "SPACE_GLOBAL_ID": "{bc6bd68e-4f83-4aa9-a87a-617cc010f02a}" }, "geometry": { "type": "Point", "coordinates": [ -75.248913637897402, 39.953599045096702 ] } },
{ "type": "Feature", "properties": { "OBJECTID": 88, "ASSET_NAME": "Cobbs Creek Environmental Center picnic site 4", "SITE_NUMBE": 4, "PSPACETYPE": "Picnic Site", "CAPACITY": 50, "DSCRIPTION": " ", "DPP_ASSET_": 3056, "SPACE_GLOBAL_ID": "{f3295dab-ed48-4425-895b-73a96f7765ec}" }, "geometry": { "type": "Point", "coordinates": [ -75.249389738635102, 39.953269472763502 ] } },
{ "type": "Feature", "properties": { "OBJECTID": 89, "ASSET_NAME": "Cobbs Creek Recreation Center picnic site 2", "SITE_NUMBE": 2, "PSPACETYPE": "Picnic Site", "CAPACITY": 50, "DSCRIPTION": " ", "DPP_ASSET_": 1836, "SPACE_GLOBAL_ID": "{77ba87e5-89ff-4096-8663-c4047f2d013d}" }, "geometry": { "type": "Point", "coordinates": [ -75.249507914249307, 39.957759574169003 ] } },
{ "type": "Feature", "properties": { "OBJECTID": 90, "ASSET_NAME": "Cobbs Creek Recreation Center picnic site 1", "SITE_NUMBE": 1, "PSPACETYPE": "Picnic Site", "CAPACITY": 50, "DSCRIPTION": " ", "DPP_ASSET_": 3056, "SPACE_GLOBAL_ID": "{f37220a3-3e90-48ce-b5c7-8e91153a6dbe}" }, "geometry": { "type": "Point", "coordinates": [ -75.249814073453393, 39.957761028061597 ] } },
{ "type": "Feature", "properties": { "OBJECTID": 91, "ASSET_NAME": "Laura Sims Skating Rink picnic site 3", "SITE_NUMBE": 3, "PSPACETYPE": "Picnic Site", "CAPACITY": 50, "DSCRIPTION": " ", "DPP_ASSET_": 3056, "SPACE_GLOBAL_ID": "{9159f63f-fb6c-4ff9-8caf-5ad02f51c080}" }, "geometry": { "type": "Point", "coordinates": [ -75.247914885943402, 39.958620881377698 ] } },
{ "type": "Feature", "properties": { "OBJECTID": 92, "ASSET_NAME": "South George's Hill Picnic Area site 2", "SITE_NUMBE": 2, "PSPACETYPE": "Picnic Site", "CAPACITY": 50, "DSCRIPTION": " ", "DPP_ASSET_": 1714, "SPACE_GLOBAL_ID": "{5d9d0fa2-bd83-4428-8b63-544838fb0a05}" }, "geometry": { "type": "Point", "coordinates": [ -75.219142628246303, 39.984706473004003 ] } },
{ "type": "Feature", "properties": { "OBJECTID": 93, "ASSET_NAME": "South George's Hill Picnic Area site 3", "SITE_NUMBE": 3, "PSPACETYPE": "Picnic Site", "CAPACITY": 50, "DSCRIPTION": " ", "DPP_ASSET_": 1714, "SPACE_GLOBAL_ID": "{aa17360c-c033-433d-81a8-b3cf522824cc}" }, "geometry": { "type": "Point", "coordinates": [ -75.220819588128407, 39.984862530454002 ] } },
{ "type": "Feature", "properties": { "OBJECTID": 94, "ASSET_NAME": "South George's Hill Picnic Area Pavilion", "SITE_NUMBE": 1, "PSPACETYPE": "Picnic Pavilion", "CAPACITY": 50, "DSCRIPTION": " ", "DPP_ASSET_": 1714, "SPACE_GLOBAL_ID": "{990d227d-fe87-4725-88ee-7661ee560825}" }, "geometry": { "type": "Point", "coordinates": [ -75.2195909503656, 39.984895319215397 ] } },
{ "type": "Feature", "properties": { "OBJECTID": 95, "ASSET_NAME": "South George's Hill Picnic Area site 4", "SITE_NUMBE": 4, "PSPACETYPE": "Picnic Site", "CAPACITY": 50, "DSCRIPTION": " ", "DPP_ASSET_": 1714, "SPACE_GLOBAL_ID": "{d344c6ab-8d8d-489f-855c-3c0041f89180}" }, "geometry": { "type": "Point", "coordinates": [ -75.218296857233895, 39.984400320406003 ] } },
{ "type": "Feature", "properties": { "OBJECTID": 96, "ASSET_NAME": "MLK Stone Comfort Station picnic shelter", "SITE_NUMBE": 1, "PSPACETYPE": "Picnic Pavilion", "CAPACITY": 50, "DSCRIPTION": " ", "DPP_ASSET_": 1714, "SPACE_GLOBAL_ID": "{f0e90526-a857-4351-a4fc-e55fcf0e73c5}" }, "geometry": { "type": "Point", "coordinates": [ -75.193067040883903, 40.001784849631299 ] } },
{ "type": "Feature", "properties": { "OBJECTID": 97, "ASSET_NAME": "MLK Stone Comfort Station picnic site 3", "SITE_NUMBE": 3, "PSPACETYPE": "Picnic Site", "CAPACITY": 50, "DSCRIPTION": " ", "DPP_ASSET_": 1714, "SPACE_GLOBAL_ID": "{7344685d-562a-4b97-9b83-9e688205f2bd}" }, "geometry": { "type": "Point", "coordinates": [ -75.193164508916098, 40.001561070620497 ] } },
{ "type": "Feature", "properties": { "OBJECTID": 98, "ASSET_NAME": "MLK Stone Comfort Station picnic site 2", "SITE_NUMBE": 2, "PSPACETYPE": "Picnic Site", "CAPACITY": 50, "DSCRIPTION": " ", "DPP_ASSET_": 1714, "SPACE_GLOBAL_ID": "{82167732-7619-4c6c-9c18-5d43519f26fe}" }, "geometry": { "type": "Point", "coordinates": [ -75.192944593033701, 40.001495672489 ] } },
{ "type": "Feature", "properties": { "OBJECTID": 99, "ASSET_NAME": "Lemon Hill picnic site 3", "SITE_NUMBE": 3, "PSPACETYPE": "Picnic Site", "CAPACITY": 50, "DSCRIPTION": " ", "DPP_ASSET_": 1713, "SPACE_GLOBAL_ID": "{933b2851-b8ec-446d-9cb3-a8c4294a3f05}" }, "geometry": { "type": "Point", "coordinates": [ -75.186411349847305, 39.971343373981298 ] } },
{ "type": "Feature", "properties": { "OBJECTID": 100, "ASSET_NAME": "Lemon Hill picnic site 4", "SITE_NUMBE": 4, "PSPACETYPE": "Picnic Site", "CAPACITY": 50, "DSCRIPTION": " ", "DPP_ASSET_": 1713, "SPACE_GLOBAL_ID": "{46d59097-31db-4f02-9c1c-a43281a9661d}" }, "geometry": { "type": "Point", "coordinates": [ -75.186956631757496, 39.971746817223803 ] } },
{ "type": "Feature", "properties": { "OBJECTID": 101, "ASSET_NAME": "Lemon Hill picnic site 9", "SITE_NUMBE": 9, "PSPACETYPE": "Picnic Site", "CAPACITY": 50, "DSCRIPTION": " ", "DPP_ASSET_": 1713, "SPACE_GLOBAL_ID": "{be8b182a-8227-4e9f-9c8d-f1ba907f58dc}" }, "geometry": { "type": "Point", "coordinates": [ -75.188018237486403, 39.973504676418997 ] } },
{ "type": "Feature", "properties": { "OBJECTID": 102, "ASSET_NAME": "MLK Stone Comfort Station picnic site 4", "SITE_NUMBE": 4, "PSPACETYPE": "Picnic Site", "CAPACITY": 50, "DSCRIPTION": " ", "DPP_ASSET_": 1714, "SPACE_GLOBAL_ID": "{ae4cf21a-7e21-4777-b24b-de88a2c5411b}" }, "geometry": { "type": "Point", "coordinates": [ -75.193077192777096, 40.002199017922699 ] } },
{ "type": "Feature", "properties": { "OBJECTID": 103, "ASSET_NAME": "MLK Stone Comfort Station picnic site 5", "SITE_NUMBE": 5, "PSPACETYPE": "Picnic Site", "CAPACITY": 50, "DSCRIPTION": " ", "DPP_ASSET_": 1714, "SPACE_GLOBAL_ID": "{81db64ec-a6d6-4c55-95f2-f551358289d0}" }, "geometry": { "type": "Point", "coordinates": [ -75.193067543093505, 40.002536671394999 ] } },
{ "type": "Feature", "properties": { "OBJECTID": 104, "ASSET_NAME": "North Georges Hill picnic site 3", "SITE_NUMBE": 3, "PSPACETYPE": "Picnic Site", "CAPACITY": 50, "DSCRIPTION": " ", "DPP_ASSET_": 1714, "SPACE_GLOBAL_ID": "{e449b266-3613-4b4a-b856-948d61af1c9b}" }, "geometry": { "type": "Point", "coordinates": [ -75.222284209808194, 39.987597647443501 ] } },
{ "type": "Feature", "properties": { "OBJECTID": 105, "ASSET_NAME": "Allens Lane Art Center picnic site 1", "SITE_NUMBE": 1, "PSPACETYPE": "Picnic Site", "CAPACITY": 50, "DSCRIPTION": " ", "DPP_ASSET_": 1807, "SPACE_GLOBAL_ID": "{570fa769-f177-4e31-a6d7-213f1a303dfb}" }, "geometry": { "type": "Point", "coordinates": [ -75.2025998247844, 40.051714340710703 ] } },
{ "type": "Feature", "properties": { "OBJECTID": 106, "ASSET_NAME": "Allens Lane Art Center picnic site 2", "SITE_NUMBE": 2, "PSPACETYPE": "Picnic Site", "CAPACITY": 50, "DSCRIPTION": " ", "DPP_ASSET_": 1807, "SPACE_GLOBAL_ID": "{6f126ae8-fa6c-454b-a665-421dc7c7069d}" }, "geometry": { "type": "Point", "coordinates": [ -75.203337078874895, 40.051275122527898 ] } },
{ "type": "Feature", "properties": { "OBJECTID": 107, "ASSET_NAME": "Bardascino Park", "SITE_NUMBE": 1, "PSPACETYPE": "Neighborhood Park", "CAPACITY": 50, "DSCRIPTION": " ", "DPP_ASSET_": 557, "SPACE_GLOBAL_ID": "{726fee04-4d24-415d-b989-85fdfc9b70fd}" }, "geometry": { "type": "Point", "coordinates": [ -75.159926123336106, 39.9378520717963 ] } },
{ "type": "Feature", "properties": { "OBJECTID": 108, "ASSET_NAME": "Carroll Park", "SITE_NUMBE": 1, "PSPACETYPE": "Neighborhood Park", "CAPACITY": 50, "DSCRIPTION": " ", "DPP_ASSET_": 374, "SPACE_GLOBAL_ID": "{318d55aa-4fd1-4703-8eb9-6c5d910ff590}" }, "geometry": { "type": "Point", "coordinates": [ -75.236725188219495, 39.971029319523403 ] } },
{ "type": "Feature", "properties": { "OBJECTID": 109, "ASSET_NAME": "Clark Park", "SITE_NUMBE": 1, "PSPACETYPE": "Neighborhood Park", "CAPACITY": 50, "DSCRIPTION": " ", "DPP_ASSET_": 2906, "SPACE_GLOBAL_ID": "{4372b934-a679-4f9c-a8e9-17edc9396b3a}" }, "geometry": { "type": "Point", "coordinates": [ -75.209851229128006, 39.948996477602897 ] } },
{ "type": "Feature", "properties": { "OBJECTID": 110, "ASSET_NAME": "Fernhill Park picnic site 4", "SITE_NUMBE": 4, "PSPACETYPE": "Picnic Site", "CAPACITY": 50, "DSCRIPTION": " ", "DPP_ASSET_": 833, "SPACE_GLOBAL_ID": "{eac53848-6812-4833-9bd8-e4e71fec13d4}" }, "geometry": { "type": "Point", "coordinates": [ -75.170129542079394, 40.016087305515804 ] } },
{ "type": "Feature", "properties": { "OBJECTID": 111, "ASSET_NAME": "Malcolm X Memorial Park picnic site 4", "SITE_NUMBE": 4, "PSPACETYPE": "Picnic Site", "CAPACITY": 50, "DSCRIPTION": " ", "DPP_ASSET_": 182, "SPACE_GLOBAL_ID": "{5551d5d4-ecc2-4619-b738-df5b5bb9a416}" }, "geometry": { "type": "Point", "coordinates": [ -75.225323280977406, 39.952455326917899 ] } },
{ "type": "Feature", "properties": { "OBJECTID": 112, "ASSET_NAME": "Malcolm X Memorial Park picnic site 3", "SITE_NUMBE": 3, "PSPACETYPE": "Picnic Site", "CAPACITY": 50, "DSCRIPTION": " ", "DPP_ASSET_": 182, "SPACE_GLOBAL_ID": "{3ffdc7f7-8a38-4330-a69a-16659422a79b}" }, "geometry": { "type": "Point", "coordinates": [ -75.225162348469794, 39.952760021946197 ] } },
{ "type": "Feature", "properties": { "OBJECTID": 113, "ASSET_NAME": "Malcolm X Memorial Park picnic site 2", "SITE_NUMBE": 2, "PSPACETYPE": "Picnic Site", "CAPACITY": 50, "DSCRIPTION": " ", "DPP_ASSET_": 182, "SPACE_GLOBAL_ID": "{1a952fd7-f9b3-4617-a288-7eca8d34beb2}" }, "geometry": { "type": "Point", "coordinates": [ -75.225562677467806, 39.953071348658099 ] } },
{ "type": "Feature", "properties": { "OBJECTID": 114, "ASSET_NAME": "41st & Parkside open area 1", "SITE_NUMBE": 1, "PSPACETYPE": "Picnic Site", "CAPACITY": 50, "DSCRIPTION": " ", "DPP_ASSET_": 3461, "SPACE_GLOBAL_ID": "{7c292baa-aea2-4933-b313-969b744042e9}" }, "geometry": { "type": "Point", "coordinates": [ -75.206941003751396, 39.975816082770002 ] } },
{ "type": "Feature", "properties": { "OBJECTID": 115, "ASSET_NAME": "50th & Parkside Ave open area 1", "SITE_NUMBE": 1, "PSPACETYPE": "Picnic Site", "CAPACITY": 50, "DSCRIPTION": " ", "DPP_ASSET_": 1714, "SPACE_GLOBAL_ID": "{69f19e08-d3ef-4441-9ac9-57e1f12b8655}" }, "geometry": { "type": "Point", "coordinates": [ -75.219126457829404, 39.980295756891799 ] } },
{ "type": "Feature", "properties": { "OBJECTID": 116, "ASSET_NAME": "51st & Parkside open area 1", "SITE_NUMBE": 1, "PSPACETYPE": "Picnic Site", "CAPACITY": 50, "DSCRIPTION": " ", "DPP_ASSET_": 1714, "SPACE_GLOBAL_ID": "{9b448112-177d-4cc1-8fb9-a572bb47ca85}" }, "geometry": { "type": "Point", "coordinates": [ -75.221222249142301, 39.981153296570298 ] } },
{ "type": "Feature", "properties": { "OBJECTID": 117, "ASSET_NAME": "61st & Baltimore open area 1", "SITE_NUMBE": 1, "PSPACETYPE": "Picnic Site", "CAPACITY": 50, "DSCRIPTION": " ", "DPP_ASSET_": 3481, "SPACE_GLOBAL_ID": "{a7f1810f-3d30-4364-8969-60a365eafdb4}" }, "geometry": { "type": "Point", "coordinates": [ -75.246827233838701, 39.943786155080701 ] } },
{ "type": "Feature", "properties": { "OBJECTID": 118, "ASSET_NAME": "64th & Race open area 1", "SITE_NUMBE": 1, "PSPACETYPE": "Picnic Site", "CAPACITY": 50, "DSCRIPTION": " ", "DPP_ASSET_": 3056, "SPACE_GLOBAL_ID": "{0e160181-ce8e-4bc5-82d7-c819231792bf}" }, "geometry": { "type": "Point", "coordinates": [ -75.247581529179499, 39.965806256601098 ] } },
{ "type": "Feature", "properties": { "OBJECTID": 119, "ASSET_NAME": "74th & Lindbergh (Eastwick) open area 1", "SITE_NUMBE": 1, "PSPACETYPE": "Picnic Site", "CAPACITY": 50, "DSCRIPTION": " ", "DPP_ASSET_": 400, "SPACE_GLOBAL_ID": "{f376cb54-a816-4ef2-9ad6-4bbe374d3ec8}" }, "geometry": { "type": "Point", "coordinates": [ -75.236760199632997, 39.907375621029203 ] } },
{ "type": "Feature", "properties": { "OBJECTID": 120, "ASSET_NAME": "Belmont & Parkside open area 1", "SITE_NUMBE": 1, "PSPACETYPE": "Picnic Site", "CAPACITY": 50, "DSCRIPTION": " ", "DPP_ASSET_": 1714, "SPACE_GLOBAL_ID": "{2081ca9f-02d1-4d14-a654-96991bedc97b}" }, "geometry": { "type": "Point", "coordinates": [ -75.213894098854098, 39.978246348865 ] } },
{ "type": "Feature", "properties": { "OBJECTID": 121, "ASSET_NAME": "Clearview Park", "SITE_NUMBE": 1, "PSPACETYPE": "Neighborhood Park", "CAPACITY": 50, "DSCRIPTION": " ", "DPP_ASSET_": 500, "SPACE_GLOBAL_ID": "{441667ca-0154-4759-9269-b25e8fb16f23}" }, "geometry": { "type": "Point", "coordinates": [ -75.246044592821207, 39.907672975758999 ] } },
{ "type": "Feature", "properties": { "OBJECTID": 122, "ASSET_NAME": "Cliveden Park", "SITE_NUMBE": 1, "PSPACETYPE": "Neighborhood Park", "CAPACITY": 50, "DSCRIPTION": " ", "DPP_ASSET_": 1106, "SPACE_GLOBAL_ID": "{20d4bc53-fe19-4df5-aa55-3d5cf8a30caa}" }, "geometry": { "type": "Point", "coordinates": [ -75.177191720702595, 40.051769971695101 ] } },
{ "type": "Feature", "properties": { "OBJECTID": 123, "ASSET_NAME": "Cobbs Creek at 63rd Street South open area", "SITE_NUMBE": 1, "PSPACETYPE": "Picnic Site", "CAPACITY": 50, "DSCRIPTION": " ", "DPP_ASSET_": 3056, "SPACE_GLOBAL_ID": "{d08909ed-b3aa-43f4-b986-09d9fcd565ce}" }, "geometry": { "type": "Point", "coordinates": [ -75.249143583104697, 39.952816082581997 ] } },
{ "type": "Feature", "properties": { "OBJECTID": 124, "ASSET_NAME": "Cobbs Creek at Catherine Street open area", "SITE_NUMBE": 1, "PSPACETYPE": "Picnic Site", "CAPACITY": 50, "DSCRIPTION": " ", "DPP_ASSET_": 1835, "SPACE_GLOBAL_ID": "{279aa691-6324-4e74-8368-72d9883f0918}" }, "geometry": { "type": "Point", "coordinates": [ -75.249583644585499, 39.951756188585101 ] } },
{ "type": "Feature", "properties": { "OBJECTID": 125, "ASSET_NAME": "Connell Park", "SITE_NUMBE": 1, "PSPACETYPE": "Neighborhood Park", "CAPACITY": 50, "DSCRIPTION": " ", "DPP_ASSET_": 955, "SPACE_GLOBAL_ID": "{c44318f4-5718-4a36-9126-71e663008150}" }, "geometry": { "type": "Point", "coordinates": [ -75.230412744238095, 39.923245135181403 ] } },
{ "type": "Feature", "properties": { "OBJECTID": 126, "ASSET_NAME": "Diamond Park", "SITE_NUMBE": 1, "PSPACETYPE": "Neighborhood Park", "CAPACITY": 50, "DSCRIPTION": " ", "DPP_ASSET_": 635, "SPACE_GLOBAL_ID": "{607a7e8d-79c2-4bbe-885e-4079b05449d6}" }, "geometry": { "type": "Point", "coordinates": [ -75.162754582897307, 39.985322489823602 ] } },
{ "type": "Feature", "properties": { "OBJECTID": 127, "ASSET_NAME": "Elmwood Park", "SITE_NUMBE": 1, "PSPACETYPE": "Neighborhood Park", "CAPACITY": 50, "DSCRIPTION": " ", "DPP_ASSET_": 2907, "SPACE_GLOBAL_ID": "{5102e0ff-4a9a-49e9-95e3-49f2ccfb8a2e}" }, "geometry": { "type": "Point", "coordinates": [ -75.237736883048797, 39.913756620854898 ] } },
{ "type": "Feature", "properties": { "OBJECTID": 128, "ASSET_NAME": "Filter Square", "SITE_NUMBE": 1, "PSPACETYPE": "Neighborhood Park", "CAPACITY": 50, "DSCRIPTION": " ", "DPP_ASSET_": 2904, "SPACE_GLOBAL_ID": "{9f9104df-2b85-40e1-90b2-1a76e2c63314}" }, "geometry": { "type": "Point", "coordinates": [ -75.179784550820997, 39.947607334416098 ] } },
{ "type": "Feature", "properties": { "OBJECTID": 129, "ASSET_NAME": "Fotteral Square", "SITE_NUMBE": 1, "PSPACETYPE": "Neighborhood Park", "CAPACITY": 50, "DSCRIPTION": " ", "DPP_ASSET_": 1184, "SPACE_GLOBAL_ID": "{aaf596b6-d32c-4827-8681-f2fa826ce0ff}" }, "geometry": { "type": "Point", "coordinates": [ -75.1504275734804, 39.98975159271 ] } },
{ "type": "Feature", "properties": { "OBJECTID": 130, "ASSET_NAME": "Gold Star Park", "SITE_NUMBE": 1, "PSPACETYPE": "Neighborhood Park", "CAPACITY": 50, "DSCRIPTION": " ", "DPP_ASSET_": 143, "SPACE_GLOBAL_ID": "{91a25656-a95b-4f07-8723-8488545f86fc}" }, "geometry": { "type": "Point", "coordinates": [ -75.155194360735806, 39.932903033068598 ] } },
{ "type": "Feature", "properties": { "OBJECTID": 131, "ASSET_NAME": "Pleasant Hill Park", "SITE_NUMBE": 1, "PSPACETYPE": "Neighborhood Park", "CAPACITY": 50, "DSCRIPTION": " ", "DPP_ASSET_": 3086, "SPACE_GLOBAL_ID": "{2844c704-6acf-4a91-b4e2-afacd78855bc}" }, "geometry": { "type": "Point", "coordinates": [ -74.993056586449498, 40.041572718800197 ] } },
{ "type": "Feature", "properties": { "OBJECTID": 132, "ASSET_NAME": "Hawthorne Park", "SITE_NUMBE": 1, "PSPACETYPE": "Neighborhood Park", "CAPACITY": 50, "DSCRIPTION": " ", "DPP_ASSET_": 2884, "SPACE_GLOBAL_ID": "{5a33c3fa-df4f-4ca9-8ee7-9cd94e8207b4}" }, "geometry": { "type": "Point", "coordinates": [ -75.162807950771906, 39.940669940612601 ] } },
{ "type": "Feature", "properties": { "OBJECTID": 133, "ASSET_NAME": "Jefferson Square", "SITE_NUMBE": 1, "PSPACETYPE": "Neighborhood Park", "CAPACITY": 50, "DSCRIPTION": " ", "DPP_ASSET_": 199, "SPACE_GLOBAL_ID": "{172b8056-4ed1-4618-9f86-0c225b2df055}" }, "geometry": { "type": "Point", "coordinates": [ -75.150176273391494, 39.933612062002503 ] } },
{ "type": "Feature", "properties": { "OBJECTID": 134, "ASSET_NAME": "Julian Abele Park", "SITE_NUMBE": 1, "PSPACETYPE": "Neighborhood Park", "CAPACITY": 50, "DSCRIPTION": " ", "DPP_ASSET_": 1159, "SPACE_GLOBAL_ID": "{afc45cbb-d7db-4f59-876d-58c78ba6cdcc}" }, "geometry": { "type": "Point", "coordinates": [ -75.179312144476498, 39.940925000444402 ] } },
{ "type": "Feature", "properties": { "OBJECTID": 135, "ASSET_NAME": "Loudoun Park", "SITE_NUMBE": 1, "PSPACETYPE": "Neighborhood Park", "CAPACITY": 50, "DSCRIPTION": " ", "DPP_ASSET_": 1180, "SPACE_GLOBAL_ID": "{04e66bdd-1be5-4eed-8f8b-5f58d11ddc8f}" }, "geometry": { "type": "Point", "coordinates": [ -75.161014411443801, 40.0257144469088 ] } },
{ "type": "Feature", "properties": { "OBJECTID": 136, "ASSET_NAME": "Mathias Baldwin", "SITE_NUMBE": 1, "PSPACETYPE": "Neighborhood Park", "CAPACITY": 50, "DSCRIPTION": " ", "DPP_ASSET_": 2814, "SPACE_GLOBAL_ID": "{4dfa8119-7887-42ca-b3cb-a8746055a4f9}" }, "geometry": { "type": "Point", "coordinates": [ -75.168989628329896, 39.961601106750599 ] } },
{ "type": "Feature", "properties": { "OBJECTID": 137, "ASSET_NAME": "Memorial Hall rear lawn open area 1", "SITE_NUMBE": 1, "PSPACETYPE": "Picnic Site", "CAPACITY": 50, "DSCRIPTION": " ", "DPP_ASSET_": 1714, "SPACE_GLOBAL_ID": "{c5fa9a6f-e5d3-4326-a0d9-83e966553c38}" }, "geometry": { "type": "Point", "coordinates": [ -75.208042761455204, 39.980741873316703 ] } },
{ "type": "Feature", "properties": { "OBJECTID": 138, "ASSET_NAME": "Memorial Hall rear lawn open area 2", "SITE_NUMBE": 2, "PSPACETYPE": "Picnic Site", "CAPACITY": 50, "DSCRIPTION": " ", "DPP_ASSET_": 1714, "SPACE_GLOBAL_ID": "{7dfd91f3-309e-404c-a271-fbda1618d803}" }, "geometry": { "type": "Point", "coordinates": [ -75.208169578039602, 39.980412888841101 ] } },
{ "type": "Feature", "properties": { "OBJECTID": 139, "ASSET_NAME": "Memorial Hall rear lawn open area 3", "SITE_NUMBE": 3, "PSPACETYPE": "Picnic Site", "CAPACITY": 50, "DSCRIPTION": " ", "DPP_ASSET_": 1714, "SPACE_GLOBAL_ID": "{b5aefb12-6a45-49a2-b134-a0e1494546b0}" }, "geometry": { "type": "Point", "coordinates": [ -75.208714016946502, 39.980551203507197 ] } },
{ "type": "Feature", "properties": { "OBJECTID": 140, "ASSET_NAME": "Memorial Hall rear lawn open area 4", "SITE_NUMBE": 4, "PSPACETYPE": "Picnic Site", "CAPACITY": 50, "DSCRIPTION": " ", "DPP_ASSET_": 1714, "SPACE_GLOBAL_ID": "{7774058f-58bc-4bf2-ba82-b0d59ab1bcb3}" }, "geometry": { "type": "Point", "coordinates": [ -75.208522261595405, 39.980881685931102 ] } },
{ "type": "Feature", "properties": { "OBJECTID": 141, "ASSET_NAME": "Mount Pleasant open area", "SITE_NUMBE": 1, "PSPACETYPE": "Picnic Site", "CAPACITY": 50, "DSCRIPTION": " ", "DPP_ASSET_": 1713, "SPACE_GLOBAL_ID": "{9705200d-dead-4995-9a53-497bd20592e4}" }, "geometry": { "type": "Point", "coordinates": [ -75.200010811166607, 39.983491923289101 ] } },
{ "type": "Feature", "properties": { "OBJECTID": 142, "ASSET_NAME": "Clara Muhammad Square", "SITE_NUMBE": 1, "PSPACETYPE": "Neighborhood Park", "CAPACITY": 50, "DSCRIPTION": " ", "DPP_ASSET_": 484, "SPACE_GLOBAL_ID": "{8d0ba1d0-8798-4310-bcde-100c6949179a}" }, "geometry": { "type": "Point", "coordinates": [ -75.216720438594294, 39.971266154759299 ] } },
{ "type": "Feature", "properties": { "OBJECTID": 143, "ASSET_NAME": "Nicetown Park Triangle", "SITE_NUMBE": 1, "PSPACETYPE": "Neighborhood Park", "CAPACITY": 50, "DSCRIPTION": " ", "DPP_ASSET_": 618, "SPACE_GLOBAL_ID": "{a700f455-4a2d-4ec7-a2bf-2faaff650998}" }, "geometry": { "type": "Point", "coordinates": [ -75.157007310605096, 40.0208982051617 ] } },
{ "type": "Feature", "properties": { "OBJECTID": 144, "ASSET_NAME": "Norris Square", "SITE_NUMBE": 1, "PSPACETYPE": "Neighborhood Park", "CAPACITY": 50, "DSCRIPTION": " ", "DPP_ASSET_": 2905, "SPACE_GLOBAL_ID": "{e5b0fb2b-b285-43e0-a8ef-15759185bd77}" }, "geometry": { "type": "Point", "coordinates": [ -75.134800001050806, 39.983105179605502 ] } },
{ "type": "Feature", "properties": { "OBJECTID": 145, "ASSET_NAME": "Philadelphia Museum of Art Apron", "SITE_NUMBE": 1, "PSPACETYPE": "Park A Site", "CAPACITY": 100, "DSCRIPTION": " ", "DPP_ASSET_": 3463, "SPACE_GLOBAL_ID": "{d8294ff9-68c8-44b1-b88b-ff570d8bfbc3}" }, "geometry": { "type": "Point", "coordinates": [ -75.179617573782295, 39.964671099360601 ] } },
{ "type": "Feature", "properties": { "OBJECTID": 146, "ASSET_NAME": "Penn Treaty Park", "SITE_NUMBE": 3, "PSPACETYPE": "Neighborhood Park", "CAPACITY": 250, "DSCRIPTION": " ", "DPP_ASSET_": 317, "SPACE_GLOBAL_ID": "{3473efdd-53e3-4ce1-be7c-090e0aabccf0}" }, "geometry": { "type": "Point", "coordinates": [ -75.128595074120696, 39.966140242819201 ] } },
{ "type": "Feature", "properties": { "OBJECTID": 147, "ASSET_NAME": "Woodside Park", "SITE_NUMBE": 1, "PSPACETYPE": "Neighborhood Park", "CAPACITY": 100, "DSCRIPTION": " ", "DPP_ASSET_": 1840, "SPACE_GLOBAL_ID": "{81c38bd7-444e-473f-9cc8-881aebbd88cb}" }, "geometry": { "type": "Point", "coordinates": [ -75.208399487929697, 40.001989414713101 ] } },
{ "type": "Feature", "properties": { "OBJECTID": 148, "ASSET_NAME": "Woodside Park gazebo", "SITE_NUMBE": 2, "PSPACETYPE": "Picnic Pavilion", "CAPACITY": 50, "DSCRIPTION": " ", "DPP_ASSET_": 1840, "SPACE_GLOBAL_ID": "{d1e19272-b134-4f66-ac55-5a21b6e13b01}" }, "geometry": { "type": "Point", "coordinates": [ -75.208187723402304, 40.002014886318101 ] } },
{ "type": "Feature", "properties": { "OBJECTID": 149, "ASSET_NAME": "Fairmount Waterworks Gazebo", "SITE_NUMBE": 1, "PSPACETYPE": "Picnic Pavilion", "CAPACITY": 50, "DSCRIPTION": " ", "DPP_ASSET_": 2880, "SPACE_GLOBAL_ID": "{1a107218-a577-45a9-ac65-4546b1d86eff}" }, "geometry": { "type": "Point", "coordinates": [ -75.1845396398178, 39.966975262334003 ] } },
{ "type": "Feature", "properties": { "OBJECTID": 150, "ASSET_NAME": "Brewerytown Community Garden", "SITE_NUMBE": 1, "PSPACETYPE": "Community Garden", "CAPACITY": 50, "DSCRIPTION": "Sitting on just over a half acre of land, Brewerytown Garden is presently equipped with running water, electricity, greenhouse, tool shed, composting bins, picnic area, community board, and 75 individual garden plots for growing organic produce.", "DPP_ASSET_": 3767, "SPACE_GLOBAL_ID": "{a736dd95-a52e-4e84-a2a9-f92a9a1bfb10}" }, "geometry": { "type": "Point", "coordinates": [ -75.179577834175802, 39.976823130375301 ] } },
{ "type": "Feature", "properties": { "OBJECTID": 151, "ASSET_NAME": "Burholme Park Neighborhood Park", "SITE_NUMBE": 1, "PSPACETYPE": "Neighborhood Park", "CAPACITY": 500, "DSCRIPTION": "Use of the entire southeastern section of the park and parking lot for events.", "DPP_ASSET_": 490, "SPACE_GLOBAL_ID": "{6cf7d2a1-297a-4c47-b865-b0197d000fa8}" }, "geometry": { "type": "Point", "coordinates": [ -75.090034281275607, 40.067283682308698 ] } },
{ "type": "Feature", "properties": { "OBJECTID": 152, "ASSET_NAME": "Cianfrani Park Neighborhood Park", "SITE_NUMBE": 1, "PSPACETYPE": "Neighborhood Park", "CAPACITY": 150, "DSCRIPTION": "A small neighborhood park in Bella Vista with shaded lawn areas, walkways, and benches. The decorative plantings maintained by local residents. The park has a friends group that hosts many annual community events.", "DPP_ASSET_": 521, "SPACE_GLOBAL_ID": "{fe86d4c8-4d5f-49db-8f0f-f94998f330c2}" }, "geometry": { "type": "Point", "coordinates": [ -75.155409521207005, 39.940691655159299 ] } },
{ "type": "Feature", "properties": { "OBJECTID": 153, "ASSET_NAME": "Clark Park Bowl", "SITE_NUMBE": 3, "PSPACETYPE": "Neighborhood Park", "CAPACITY": 150, "DSCRIPTION": "Clark Park Bowl", "DPP_ASSET_": 2906, "SPACE_GLOBAL_ID": "{3AFE9890-AA14-40F7-84CD-3A34B2DB6AFC}" }, "geometry": { "type": "Point", "coordinates": [ -75.209834844755306, 39.947720547842202 ] } },
{ "type": "Feature", "properties": { "OBJECTID": 154, "ASSET_NAME": "Fernhill Park Picnic Pavilion 1", "SITE_NUMBE": 1, "PSPACETYPE": "Picnic Pavilion", "CAPACITY": 50, "DSCRIPTION": " ", "DPP_ASSET_": 833, "SPACE_GLOBAL_ID": "{df452857-69a4-4477-a1ae-2a88c6f66ee6}" }, "geometry": { "type": "Point", "coordinates": [ -75.1669841816163, 40.020342464174902 ] } },
{ "type": "Feature", "properties": { "OBJECTID": 155, "ASSET_NAME": "Harper's Meadow  picnic site 2", "SITE_NUMBE": 2, "PSPACETYPE": "Picnic Site", "CAPACITY": 50, "DSCRIPTION": " ", "DPP_ASSET_": 1357, "SPACE_GLOBAL_ID": "{69161332-5259-4764-b3b6-b2e07e08d1d0}" }, "geometry": { "type": "Point", "coordinates": [ -75.229317971939906, 40.084345046629501 ] } },
{ "type": "Feature", "properties": { "OBJECTID": 156, "ASSET_NAME": "Harper's Meadow  picnic site 3", "SITE_NUMBE": 3, "PSPACETYPE": "Picnic Site", "CAPACITY": 50, "DSCRIPTION": " ", "DPP_ASSET_": 1357, "SPACE_GLOBAL_ID": "{50d7e736-d887-4e86-abee-cbf9f133b145}" }, "geometry": { "type": "Point", "coordinates": [ -75.2297463949388, 40.084175013256001 ] } },
{ "type": "Feature", "properties": { "OBJECTID": 157, "ASSET_NAME": "Harper's Meadow picnic site 1", "SITE_NUMBE": 1, "PSPACETYPE": "Picnic Site", "CAPACITY": 50, "DSCRIPTION": " ", "DPP_ASSET_": 1357, "SPACE_GLOBAL_ID": "{caffe130-0f56-42e0-bb0d-cdbc06e66ced}" }, "geometry": { "type": "Point", "coordinates": [ -75.229863472682894, 40.084815652901398 ] } },
{ "type": "Feature", "properties": { "OBJECTID": 158, "ASSET_NAME": "Cobbs Creek Park at Papa Playground picnic site 1", "SITE_NUMBE": 1, "PSPACETYPE": "Picnic Site", "CAPACITY": 50, "DSCRIPTION": " ", "DPP_ASSET_": 3056, "SPACE_GLOBAL_ID": "{39b1014a-ed5a-4cd2-9871-89dea32ee585}" }, "geometry": { "type": "Point", "coordinates": [ -75.255183466144999, 39.972933717096097 ] } },
{ "type": "Feature", "properties": { "OBJECTID": 159, "ASSET_NAME": "Cobbs Creek Park  at Papa Playground picnic site 2", "SITE_NUMBE": 2, "PSPACETYPE": "Picnic Site", "CAPACITY": 50, "DSCRIPTION": " ", "DPP_ASSET_": 3056, "SPACE_GLOBAL_ID": "{f781752f-1084-4e90-9524-3de222d3425e}" }, "geometry": { "type": "Point", "coordinates": [ -75.255441544876604, 39.9730487672295 ] } },
{ "type": "Feature", "properties": { "OBJECTID": 160, "ASSET_NAME": "Cobbs Creek Park  at Papa Playground picnic site 4", "SITE_NUMBE": 4, "PSPACETYPE": "Picnic Site", "CAPACITY": 50, "DSCRIPTION": " ", "DPP_ASSET_": 3056, "SPACE_GLOBAL_ID": "{6885d372-14a2-4a09-aa68-c76e885e93b3}" }, "geometry": { "type": "Point", "coordinates": [ -75.256438998232994, 39.973840938493801 ] } },
{ "type": "Feature", "properties": { "OBJECTID": 161, "ASSET_NAME": "Cobbs Creek Park  at Papa Playground picnic site 3", "SITE_NUMBE": 3, "PSPACETYPE": "Picnic Site", "CAPACITY": 50, "DSCRIPTION": " ", "DPP_ASSET_": 3056, "SPACE_GLOBAL_ID": "{c1d4051c-fad3-4c61-9d71-ac3c4f8f0ff1}" }, "geometry": { "type": "Point", "coordinates": [ -75.256193677324205, 39.973301104840601 ] } },
{ "type": "Feature", "properties": { "OBJECTID": 162, "ASSET_NAME": "Belmont & Edgley (at Chamounix) picnic site 4", "SITE_NUMBE": 4, "PSPACETYPE": "Picnic Site", "CAPACITY": 50, "DSCRIPTION": " ", "DPP_ASSET_": 1714, "SPACE_GLOBAL_ID": "{e765a490-5053-489f-902b-ce1392395d8e}" }, "geometry": { "type": "Point", "coordinates": [ -75.213174286551705, 39.994739269873897 ] } },
{ "type": "Feature", "properties": { "OBJECTID": 163, "ASSET_NAME": "Belmont & Edgley (at Chamounix) picnic site 3", "SITE_NUMBE": 3, "PSPACETYPE": "Picnic Site", "CAPACITY": 50, "DSCRIPTION": " ", "DPP_ASSET_": 1714, "SPACE_GLOBAL_ID": "{5ed45b50-7ec9-49d5-8acd-b9b61b386c7e}" }, "geometry": { "type": "Point", "coordinates": [ -75.213471945088898, 39.994672929801602 ] } },
{ "type": "Feature", "properties": { "OBJECTID": 164, "ASSET_NAME": "Belmont & Edgley (at Chamounix) picnic site 2", "SITE_NUMBE": 2, "PSPACETYPE": "Picnic Site", "CAPACITY": 50, "DSCRIPTION": " ", "DPP_ASSET_": 1714, "SPACE_GLOBAL_ID": "{7405398d-a103-4903-aaca-b50bd61d8221}" }, "geometry": { "type": "Point", "coordinates": [ -75.213872607912506, 39.994522728249997 ] } },
{ "type": "Feature", "properties": { "OBJECTID": 165, "ASSET_NAME": "Belmont & Edgley (at Chamounix) picnic site 1", "SITE_NUMBE": 1, "PSPACETYPE": "Picnic Site", "CAPACITY": 50, "DSCRIPTION": " ", "DPP_ASSET_": 1714, "SPACE_GLOBAL_ID": "{0e8d4b01-c8f4-40bb-aeed-20ab32181bc7}" }, "geometry": { "type": "Point", "coordinates": [ -75.2140141069615, 39.994359016195503 ] } },
{ "type": "Feature", "properties": { "OBJECTID": 166, "ASSET_NAME": "Cobbs Creek Park at Whitby Avenue picnic site 1", "SITE_NUMBE": 1, "PSPACETYPE": "Picnic Site", "CAPACITY": 50, "DSCRIPTION": " ", "DPP_ASSET_": 1372, "SPACE_GLOBAL_ID": "{d807eed8-818f-41b9-bfef-cfda7b5a22b9}" }, "geometry": { "type": "Point", "coordinates": [ -75.2379095970539, 39.940998057741602 ] } },
{ "type": "Feature", "properties": { "OBJECTID": 167, "ASSET_NAME": "Cobbs Creek Park at Whitby Avenue picnic site 2", "SITE_NUMBE": 2, "PSPACETYPE": "Picnic Site", "CAPACITY": 50, "DSCRIPTION": " ", "DPP_ASSET_": 1372, "SPACE_GLOBAL_ID": "{85afcfe7-c55c-4945-93b4-017deaaed1ea}" }, "geometry": { "type": "Point", "coordinates": [ -75.238004636099205, 39.940762319851103 ] } },
{ "type": "Feature", "properties": { "OBJECTID": 168, "ASSET_NAME": "Cobbs Creek Park at Whitby Avenue picnic site 4", "SITE_NUMBE": 4, "PSPACETYPE": "Picnic Site", "CAPACITY": 50, "DSCRIPTION": " ", "DPP_ASSET_": 1372, "SPACE_GLOBAL_ID": "{3d9f7041-53c9-41d2-93fa-d43aa37cdc6d}" }, "geometry": { "type": "Point", "coordinates": [ -75.238527682541104, 39.940765903781603 ] } },
{ "type": "Feature", "properties": { "OBJECTID": 169, "ASSET_NAME": "Cobbs Creek Park at Whitby Avenue picnic site 3", "SITE_NUMBE": 3, "PSPACETYPE": "Picnic Site", "CAPACITY": 50, "DSCRIPTION": " ", "DPP_ASSET_": 1372, "SPACE_GLOBAL_ID": "{9745126e-52e7-4693-8ac0-5037e5715e23}" }, "geometry": { "type": "Point", "coordinates": [ -75.238259978657297, 39.940612438907699 ] } },
{ "type": "Feature", "properties": { "OBJECTID": 170, "ASSET_NAME": "Cobbs Creek Park  at Papa Playground picnic site 5", "SITE_NUMBE": 5, "PSPACETYPE": "Picnic Site", "CAPACITY": 50, "DSCRIPTION": " ", "DPP_ASSET_": 3056, "SPACE_GLOBAL_ID": "{fc906baf-88e8-40aa-81cd-97983f09c58a}" }, "geometry": { "type": "Point", "coordinates": [ -75.256774429537003, 39.973726559125801 ] } },
{ "type": "Feature", "properties": { "OBJECTID": 171, "ASSET_NAME": "Cloverly Park", "SITE_NUMBE": 1, "PSPACETYPE": "Neighborhood Park", "CAPACITY": 50, "DSCRIPTION": "Cloverly Park", "DPP_ASSET_": 772, "SPACE_GLOBAL_ID": "388af3b4-9964-4469-aec1-f7af018f9df0" }, "geometry": { "type": "Point", "coordinates": [ -75.180837328115203, 40.025696447712797 ] } },
{ "type": "Feature", "properties": { "OBJECTID": 172, "ASSET_NAME": "Cobbs Creek Florence Ave & 59th St. picnic site 2", "SITE_NUMBE": 2, "PSPACETYPE": "Picnic Site", "CAPACITY": 50, "DSCRIPTION": "A picnic site with three tables.", "DPP_ASSET_": 3056, "SPACE_GLOBAL_ID": "{2a78fa35-7c20-447b-95be-ad946712ba81}" }, "geometry": { "type": "Point", "coordinates": [ -75.234204203673499, 39.937336131571797 ] } },
{ "type": "Feature", "properties": { "OBJECTID": 173, "ASSET_NAME": "FDR picnic site 7", "SITE_NUMBE": 7, "PSPACETYPE": "Picnic Site", "CAPACITY": 50, "DSCRIPTION": "A picnic site with three tables.", "DPP_ASSET_": 231, "SPACE_GLOBAL_ID": "{9d67e879-661c-43dc-9358-d349077f5848}" }, "geometry": { "type": "Point", "coordinates": [ -75.1831666682791, 39.903465554818602 ] } },
{ "type": "Feature", "properties": { "OBJECTID": 174, "ASSET_NAME": "FDR picnic site 3", "SITE_NUMBE": 3, "PSPACETYPE": "Picnic Site", "CAPACITY": 50, "DSCRIPTION": "A picnic site with three tables.", "DPP_ASSET_": 231, "SPACE_GLOBAL_ID": "{bab8d75a-c665-4081-89d1-a68848c1f636}" }, "geometry": { "type": "Point", "coordinates": [ -75.179310063020196, 39.904226990762503 ] } },
{ "type": "Feature", "properties": { "OBJECTID": 175, "ASSET_NAME": "FDR picnic site 4", "SITE_NUMBE": 4, "PSPACETYPE": "Picnic Site", "CAPACITY": 50, "DSCRIPTION": "A picnic site with three tables.", "DPP_ASSET_": 231, "SPACE_GLOBAL_ID": "{9331cf1b-7548-4a4c-bd0b-1b3ecac1d413}" }, "geometry": { "type": "Point", "coordinates": [ -75.178892735990303, 39.904320779277398 ] } },
{ "type": "Feature", "properties": { "OBJECTID": 176, "ASSET_NAME": "FDR picnic site 1", "SITE_NUMBE": 1, "PSPACETYPE": "Picnic Site", "CAPACITY": 50, "DSCRIPTION": "A picnic site with three tables.", "DPP_ASSET_": 231, "SPACE_GLOBAL_ID": "{320c0a30-ccaf-4695-a57a-031a1dc89b88}" }, "geometry": { "type": "Point", "coordinates": [ -75.179077619454205, 39.903990793444102 ] } },
{ "type": "Feature", "properties": { "OBJECTID": 177, "ASSET_NAME": "FDR picnic site 2", "SITE_NUMBE": 2, "PSPACETYPE": "Picnic Site", "CAPACITY": 50, "DSCRIPTION": "A picnic site with three tables.", "DPP_ASSET_": 231, "SPACE_GLOBAL_ID": "{9a339047-1fde-4375-937e-ec2242212669}" }, "geometry": { "type": "Point", "coordinates": [ -75.178405396130003, 39.904044323817601 ] } },
{ "type": "Feature", "properties": { "OBJECTID": 178, "ASSET_NAME": "FDR picnic site 6", "SITE_NUMBE": 6, "PSPACETYPE": "Picnic Site", "CAPACITY": 50, "DSCRIPTION": "A picnic site with three tables.", "DPP_ASSET_": 231, "SPACE_GLOBAL_ID": "{5ab25e6e-2d49-492d-af5d-53133353ac1d}" }, "geometry": { "type": "Point", "coordinates": [ -75.178403485391499, 39.904572388867301 ] } },
{ "type": "Feature", "properties": { "OBJECTID": 179, "ASSET_NAME": "FDR picnic site 5", "SITE_NUMBE": 5, "PSPACETYPE": "Picnic Site", "CAPACITY": 50, "DSCRIPTION": "A picnic site with three tables.", "DPP_ASSET_": 231, "SPACE_GLOBAL_ID": "{91523ab3-f316-4b7d-850b-e4adf7ae17c4}" }, "geometry": { "type": "Point", "coordinates": [ -75.178518639599602, 39.904278665016697 ] } },
{ "type": "Feature", "properties": { "OBJECTID": 180, "ASSET_NAME": "Kelly Pool picnic site 1", "SITE_NUMBE": 1, "PSPACETYPE": "Picnic Site", "CAPACITY": 50, "DSCRIPTION": " ", "DPP_ASSET_": 1714, "SPACE_GLOBAL_ID": "{6c0043bb-e356-4e23-819f-4597744b0bb9}" }, "geometry": { "type": "Point", "coordinates": [ -75.207203244253094, 39.979172898900103 ] } },
{ "type": "Feature", "properties": { "OBJECTID": 181, "ASSET_NAME": "Kelly Pool picnic site 4", "SITE_NUMBE": 4, "PSPACETYPE": "Picnic Site", "CAPACITY": 50, "DSCRIPTION": " ", "DPP_ASSET_": 1714, "SPACE_GLOBAL_ID": "{1f9f5026-ed6e-498e-8c0d-a6c2d3e053f8}" }, "geometry": { "type": "Point", "coordinates": [ -75.207656319533399, 39.978332486642202 ] } },
{ "type": "Feature", "properties": { "OBJECTID": 182, "ASSET_NAME": "Kelly Pool picnic site 3", "SITE_NUMBE": 3, "PSPACETYPE": "Picnic Site", "CAPACITY": 50, "DSCRIPTION": " ", "DPP_ASSET_": 1714, "SPACE_GLOBAL_ID": "{7ede7c40-f04a-458c-8839-2c313197c612}" }, "geometry": { "type": "Point", "coordinates": [ -75.207369194878495, 39.978469076759701 ] } },
{ "type": "Feature", "properties": { "OBJECTID": 183, "ASSET_NAME": "Kelly Pool picnic site 2", "SITE_NUMBE": 2, "PSPACETYPE": "Picnic Site", "CAPACITY": 50, "DSCRIPTION": " ", "DPP_ASSET_": 1714, "SPACE_GLOBAL_ID": "{1cb4857d-2a2a-41db-be1c-9095265da914}" }, "geometry": { "type": "Point", "coordinates": [ -75.207046103180303, 39.978916767617399 ] } },
{ "type": "Feature", "properties": { "OBJECTID": 184, "ASSET_NAME": "Belmont Plateau picnic site 5", "SITE_NUMBE": 5, "PSPACETYPE": "Picnic Site", "CAPACITY": 50, "DSCRIPTION": "A picnic site with three tables.", "DPP_ASSET_": 1818, "SPACE_GLOBAL_ID": "{96403201-65c8-45b5-a2f8-8efa92024cca}" }, "geometry": { "type": "Point", "coordinates": [ -75.211655709856103, 39.988457349635901 ] } },
{ "type": "Feature", "properties": { "OBJECTID": 185, "ASSET_NAME": "Belmont Plateau picnic site 4", "SITE_NUMBE": 4, "PSPACETYPE": "Picnic Site", "CAPACITY": 50, "DSCRIPTION": "A picnic site with three tables.", "DPP_ASSET_": 1818, "SPACE_GLOBAL_ID": "{f1edbf0b-1b13-4f78-b39e-2fe9ede56da0}" }, "geometry": { "type": "Point", "coordinates": [ -75.211626471062601, 39.9886631071073 ] } },
{ "type": "Feature", "properties": { "OBJECTID": 186, "ASSET_NAME": "Laura Sims Skating Rink picnic site 4", "SITE_NUMBE": 4, "PSPACETYPE": "Picnic Site", "CAPACITY": 50, "DSCRIPTION": " ", "DPP_ASSET_": 3056, "SPACE_GLOBAL_ID": "{0e12d1d2-0541-4c6e-adfb-bfd996abf465}" }, "geometry": { "type": "Point", "coordinates": [ -75.247779359438098, 39.958848729032603 ] } },
{ "type": "Feature", "properties": { "OBJECTID": 187, "ASSET_NAME": "Clark Park B", "SITE_NUMBE": 2, "PSPACETYPE": "Picnic site", "CAPACITY": 50, "DSCRIPTION": "Paved area with access to two tables.", "DPP_ASSET_": 2906, "SPACE_GLOBAL_ID": "{C8DF65CA-50E1-4EDF-8768-AB2EA6B539F0}" }, "geometry": { "type": "Point", "coordinates": [ -75.210848718932397, 39.947821304942103 ] } },
{ "type": "Feature", "properties": { "OBJECTID": 188, "ASSET_NAME": "Clark Park C", "SITE_NUMBE": 4, "PSPACETYPE": "Neighborhood Park", "CAPACITY": 50, "DSCRIPTION": "Clark Park \"C\" section", "DPP_ASSET_": 2906, "SPACE_GLOBAL_ID": "{07952AA8-3DEA-4AA0-8158-4D99D19EF675}" }, "geometry": { "type": "Point", "coordinates": [ -75.209309131239493, 39.946536130461801 ] } },
{ "type": "Feature", "properties": { "OBJECTID": 189, "ASSET_NAME": "FDR picnic site 8", "SITE_NUMBE": 8, "PSPACETYPE": "Picnic site", "CAPACITY": 50, "DSCRIPTION": "A picnic site with three tables.", "DPP_ASSET_": 231, "SPACE_GLOBAL_ID": "{445E2793-2BF4-4372-960E-5CE13AA99E10}" }, "geometry": { "type": "Point", "coordinates": [ -75.183632110579296, 39.902255036371599 ] } },
{ "type": "Feature", "properties": { "OBJECTID": 190, "ASSET_NAME": "FDR Picnic site 9", "SITE_NUMBE": 9, "PSPACETYPE": "Picnic site", "CAPACITY": 50, "DSCRIPTION": "A picnic site with three tables.", "DPP_ASSET_": 231, "SPACE_GLOBAL_ID": "{2CF50C38-85C9-4A13-A51E-E05031706AFB}" }, "geometry": { "type": "Point", "coordinates": [ -75.183606914941706, 39.901889664545998 ] } },
{ "type": "Feature", "properties": { "OBJECTID": 191, "ASSET_NAME": "FDR Picnic site 10", "SITE_NUMBE": 10, "PSPACETYPE": "Picnic site", "CAPACITY": 50, "DSCRIPTION": "A picnic site with three tables.", "DPP_ASSET_": 231, "SPACE_GLOBAL_ID": "{3FA790B5-EC9E-4FEE-8DCA-01A18E8672E6}" }, "geometry": { "type": "Point", "coordinates": [ -75.182649903417897, 39.901208934637502 ] } },
{ "type": "Feature", "properties": { "OBJECTID": 192, "ASSET_NAME": "FDR Picnic site 11", "SITE_NUMBE": 11, "PSPACETYPE": "Picnic site", "CAPACITY": 50, "DSCRIPTION": "A picnic site with three tables.", "DPP_ASSET_": 231, "SPACE_GLOBAL_ID": "{651A9112-5591-492A-9BD4-4CFE5FC21051}" }, "geometry": { "type": "Point", "coordinates": [ -75.182171129379697, 39.901356056937601 ] } },
{ "type": "Feature", "properties": { "OBJECTID": 193, "ASSET_NAME": "FDR Picnic site 12", "SITE_NUMBE": 12, "PSPACETYPE": "Picnic site", "CAPACITY": 50, "DSCRIPTION": "A picnic site with three tables.", "DPP_ASSET_": 231, "SPACE_GLOBAL_ID": "{37602867-065A-45EC-9D73-EB8F27BACB82}" }, "geometry": { "type": "Point", "coordinates": [ -75.181037799068307, 39.901618407868803 ] } },
{ "type": "Feature", "properties": { "OBJECTID": 194, "ASSET_NAME": "FDR Picnic site 13", "SITE_NUMBE": 13, "PSPACETYPE": "Picnic site", "CAPACITY": 50, "DSCRIPTION": "A picnic site with three tables.", "DPP_ASSET_": 231, "SPACE_GLOBAL_ID": "{AE9BA829-2F5D-40A2-B134-D8FA29582A7C}" }, "geometry": { "type": "Point", "coordinates": [ -75.1787631085881, 39.899623121808503 ] } },
{ "type": "Feature", "properties": { "OBJECTID": 195, "ASSET_NAME": "FDR Picnic site 15", "SITE_NUMBE": 15, "PSPACETYPE": "Picnic site", "CAPACITY": 50, "DSCRIPTION": "A picnic site with three tables.", "DPP_ASSET_": 231, "SPACE_GLOBAL_ID": "{F90E503E-3ACE-4460-8EA6-8AEC557A1BE4}" }, "geometry": { "type": "Point", "coordinates": [ -75.177990072247994, 39.899855617094197 ] } },
{ "type": "Feature", "properties": { "OBJECTID": 196, "ASSET_NAME": "FDR Picnic site 16", "SITE_NUMBE": 16, "PSPACETYPE": "Picnic site", "CAPACITY": 50, "DSCRIPTION": "A picnic site with three tables.", "DPP_ASSET_": 231, "SPACE_GLOBAL_ID": "{252A35C4-31DE-4AB8-A44F-6D2F134AC52F}" }, "geometry": { "type": "Point", "coordinates": [ -75.177635350457294, 39.899928151033102 ] } },
{ "type": "Feature", "properties": { "OBJECTID": 197, "ASSET_NAME": "FDR Picnic site 17", "SITE_NUMBE": 17, "PSPACETYPE": "Picnic site", "CAPACITY": 50, "DSCRIPTION": "A picnic site with three tables.", "DPP_ASSET_": 231, "SPACE_GLOBAL_ID": "{C6892CDE-DF29-4BDD-AF8D-B7FECFED2EC2}" }, "geometry": { "type": "Point", "coordinates": [ -75.177048187244395, 39.900020995071202 ] } },
{ "type": "Feature", "properties": { "OBJECTID": 198, "ASSET_NAME": "FDR Picnic site 18", "SITE_NUMBE": 18, "PSPACETYPE": "Picnic site", "CAPACITY": 50, "DSCRIPTION": "A picnic site with three tables.", "DPP_ASSET_": 231, "SPACE_GLOBAL_ID": "{4BF88D05-3258-46D6-90A2-41EBFA3A94CC}" }, "geometry": { "type": "Point", "coordinates": [ -75.176305215075899, 39.901315273955603 ] } },
{ "type": "Feature", "properties": { "OBJECTID": 199, "ASSET_NAME": "FDR Picnic site 19", "SITE_NUMBE": 19, "PSPACETYPE": "Picnic site", "CAPACITY": 50, "DSCRIPTION": "A picnic site without tables available.", "DPP_ASSET_": 231, "SPACE_GLOBAL_ID": "{4BF88D05-3258-46D6-90A2-41EBFA3A94CC}" }, "geometry": { "type": "Point", "coordinates": [ -75.176828246360799, 39.901105392038403 ] } },
{ "type": "Feature", "properties": { "OBJECTID": 200, "ASSET_NAME": "FDR Picnic site 20", "SITE_NUMBE": 20, "PSPACETYPE": "Picnic site", "CAPACITY": 50, "DSCRIPTION": "A picnic site with three tables.", "DPP_ASSET_": 231, "SPACE_GLOBAL_ID": "{D2BA01CD-11A1-4383-80F8-3BBA877719E9}" }, "geometry": { "type": "Point", "coordinates": [ -75.177207778533401, 39.901373917379402 ] } },
{ "type": "Feature", "properties": { "OBJECTID": 201, "ASSET_NAME": "FDR picnic site 14", "SITE_NUMBE": 14, "PSPACETYPE": "Picnic site", "CAPACITY": 50, "DSCRIPTION": "A picnic site with two tables.", "DPP_ASSET_": 231, "SPACE_GLOBAL_ID": "{D491A445-7FA2-4767-9180-F346A491A344}" }, "geometry": { "type": "Point", "coordinates": [ -75.178507834627993, 39.899823753397101 ] } },
{ "type": "Feature", "properties": { "OBJECTID": 202, "ASSET_NAME": "FDR Picnic site 21", "SITE_NUMBE": 21, "PSPACETYPE": "Picnic site", "CAPACITY": 50, "DSCRIPTION": "A picnic site with three tables.", "DPP_ASSET_": 231, "SPACE_GLOBAL_ID": "{D5147166-D7D5-4E35-A9BC-DC3662D26B5F}" }, "geometry": { "type": "Point", "coordinates": [ -75.175700922710504, 39.902613798377601 ] } },
{ "type": "Feature", "properties": { "OBJECTID": 203, "ASSET_NAME": "Olmsted Pavilion", "SITE_NUMBE": 1, "PSPACETYPE": "Wedding pavilion", "CAPACITY": 30, "DSCRIPTION": "The Olmsted Pavilion on Meadow Lake provides a scenic venue for photography.", "DPP_ASSET_": 231, "SPACE_GLOBAL_ID": "{05AD054D-F71A-409C-80F1-B012ED147403}" }, "geometry": { "type": "Point", "coordinates": [ -75.180110778368402, 39.903380810342099 ] } },
{ "type": "Feature", "properties": { "OBJECTID": 204, "ASSET_NAME": "Hunting Park picnic site 5", "SITE_NUMBE": 5, "PSPACETYPE": "Picnic site", "CAPACITY": 50, "DSCRIPTION": "A picnic site with three tables.", "DPP_ASSET_": 845, "SPACE_GLOBAL_ID": "{FF337E37-1AFB-4829-9A60-DAB59A034793}" }, "geometry": { "type": "Point", "coordinates": [ -75.143268022214897, 40.017084918860498 ] } },
{ "type": "Feature", "properties": { "OBJECTID": 205, "ASSET_NAME": "Wigard Avenue House picnic site 1", "SITE_NUMBE": 1, "PSPACETYPE": "Picnic site", "CAPACITY": 50, "DSCRIPTION": "A picnic site with four tables.", "DPP_ASSET_": 3668, "SPACE_GLOBAL_ID": "{7212EA66-9C53-40DF-8122-6E95C2745E3B}" }, "geometry": { "type": "Point", "coordinates": [ -75.225034458610594, 40.053626422247497 ] } },
{ "type": "Feature", "properties": { "OBJECTID": 206, "ASSET_NAME": "Chamounix Tennis Courts Picnic Pavilion", "SITE_NUMBE": 1, "PSPACETYPE": "Picnic pavilion", "CAPACITY": 50, "DSCRIPTION": "A pavilion tucked behind the tennis courts.", "DPP_ASSET_": 1827, "SPACE_GLOBAL_ID": "{D5A2A611-FC0A-44A8-AADD-D3FAC1A965F6}" }, "geometry": { "type": "Point", "coordinates": [ -75.202205332027603, 39.999241529680397 ] } },
{ "type": "Feature", "properties": { "OBJECTID": 207, "ASSET_NAME": "Kay Park", "SITE_NUMBE": 1, "PSPACETYPE": "Neighborhood Park", "CAPACITY": 50, "DSCRIPTION": "Access to This is a 1.8-acre park in Germantown without picnic tables.", "DPP_ASSET_": 1629, "SPACE_GLOBAL_ID": "4BF3B9FB-D779-4254-9B20-C8109BA183ED" }, "geometry": { "type": "Point", "coordinates": [ -75.166647069658595, 40.022052314302798 ] } },
{ "type": "Feature", "properties": { "OBJECTID": 208, "ASSET_NAME": "Kemble Park", "SITE_NUMBE": 1, "PSPACETYPE": "Neighborhood Park", "CAPACITY": 50, "DSCRIPTION": "Access to this 8.0-acre site in West Oak Lane with playground equipment, but no picnic tables.", "DPP_ASSET_": 731, "SPACE_GLOBAL_ID": "65B907E5-80D2-4E63-A303-217CB6EC5506" }, "geometry": { "type": "Point", "coordinates": [ -75.149760714964899, 40.039863996615097 ] } },
{ "type": "Feature", "properties": { "OBJECTID": 209, "ASSET_NAME": "McMichael Park", "SITE_NUMBE": 1, "PSPACETYPE": "Neighborhood Park", "CAPACITY": 50, "DSCRIPTION": "This 5.0-acre park in East Falls features open space surrounded by benches and shade trees, but no picnic tables.", "DPP_ASSET_": 880, "SPACE_GLOBAL_ID": "0BA527FB-7EB2-46C4-AB10-7E5992D4E29B" }, "geometry": { "type": "Point", "coordinates": [ -75.187684287546602, 40.018196494914001 ] } },
{ "type": "Feature", "properties": { "OBJECTID": 210, "ASSET_NAME": "Triangle Park Pavilion", "SITE_NUMBE": 1, "PSPACETYPE": "Picnic pavilion", "CAPACITY": 50, "DSCRIPTION": "A pavilion with access to two tables.", "DPP_ASSET_": 844, "SPACE_GLOBAL_ID": "B0A1A0FE-CDED-4022-B811-5336228204B3" }, "geometry": { "type": "Point", "coordinates": [ -75.231831666832306, 39.983489267482902 ] } },
{ "type": "Feature", "properties": { "OBJECTID": 211, "ASSET_NAME": "Champions Park picnic site", "SITE_NUMBE": 1, "PSPACETYPE": "Picnic site", "CAPACITY": 50, "DSCRIPTION": "Three tables and a trash can", "DPP_ASSET_": 1371, "SPACE_GLOBAL_ID": "{F127EBD9-3348-4DDD-9BAA-6E976569149C}" }, "geometry": { "type": "Point", "coordinates": [ -75.067445158892795, 40.0806936394209 ] } },
{ "type": "Feature", "properties": { "OBJECTID": 212, "ASSET_NAME": "Pennypack at Pine picnic pavilion", "SITE_NUMBE": 4, "PSPACETYPE": "Picnic pavilion", "CAPACITY": 150, "DSCRIPTION": null, "DPP_ASSET_": 1651, "SPACE_GLOBAL_ID": "{a61ec15d-16fa-4c22-8d39-52bff519104f}" }, "geometry": { "type": "Point", "coordinates": [ -75.067498512009607, 40.088452220162402 ] } },
{ "type": "Feature", "properties": { "OBJECTID": 213, "ASSET_NAME": "Pennypack at Pine picnic site 2", "SITE_NUMBE": 2, "PSPACETYPE": "Picnic site", "CAPACITY": 50, "DSCRIPTION": null, "DPP_ASSET_": 1651, "SPACE_GLOBAL_ID": "{153bb7ff-0858-4814-b632-5122b89cd190}" }, "geometry": { "type": "Point", "coordinates": [ -75.068574227273899, 40.089555882871302 ] } },
{ "type": "Feature", "properties": { "OBJECTID": 214, "ASSET_NAME": "Pennypack at Pine picnic site 1", "SITE_NUMBE": 1, "PSPACETYPE": "Picnic site", "CAPACITY": 50, "DSCRIPTION": null, "DPP_ASSET_": 1651, "SPACE_GLOBAL_ID": "{88466deb-f824-48db-b02e-c977b3dd7ccc}" }, "geometry": { "type": "Point", "coordinates": [ -75.068858541682005, 40.089736458052499 ] } },
{ "type": "Feature", "properties": { "OBJECTID": 215, "ASSET_NAME": "Pennypack at Pine picnic site 3", "SITE_NUMBE": 3, "PSPACETYPE": "Picnic site", "CAPACITY": 50, "DSCRIPTION": null, "DPP_ASSET_": 1651, "SPACE_GLOBAL_ID": "{8b44002c-8fef-48cf-aab5-287076eb02ce}" }, "geometry": { "type": "Point", "coordinates": [ -75.0683274637951, 40.089344527678399 ] } },
{ "type": "Feature", "properties": { "OBJECTID": 216, "ASSET_NAME": "Pennypack Park at Verree picnic site 1", "SITE_NUMBE": 1, "PSPACETYPE": "Picnic site", "CAPACITY": 50, "DSCRIPTION": null, "DPP_ASSET_": 1651, "SPACE_GLOBAL_ID": "{ef7ea77d-455b-4e1e-b2e5-51aeb5da9010}" }, "geometry": { "type": "Point", "coordinates": [ -75.061665795124895, 40.087635303555601 ] } },
{ "type": "Feature", "properties": { "OBJECTID": 217, "ASSET_NAME": "Olney & Tabor open area", "SITE_NUMBE": 1, "PSPACETYPE": "Picnic site", "CAPACITY": 50, "DSCRIPTION": null, "DPP_ASSET_": 1961, "SPACE_GLOBAL_ID": "{423f2b61-5ad1-4343-a87a-27d7cd4f6e4a}" }, "geometry": { "type": "Point", "coordinates": [ -75.113449851205004, 40.033485951985597 ] } },
{ "type": "Feature", "properties": { "OBJECTID": 218, "ASSET_NAME": "Memorial Hall picnic site 7", "SITE_NUMBE": 7, "PSPACETYPE": "Picnic site", "CAPACITY": 50, "DSCRIPTION": "Open space no tables and chairs", "DPP_ASSET_": 1714, "SPACE_GLOBAL_ID": "{91c61ed8-df98-413e-8856-6d07e1b990f1}" }, "geometry": { "type": "Point", "coordinates": [ -75.206023509238094, 39.9790116845965 ] } },
{ "type": "Feature", "properties": { "OBJECTID": 219, "ASSET_NAME": "Tennis Island picnic site 1", "SITE_NUMBE": 1, "PSPACETYPE": "Picnic site", "CAPACITY": 50, "DSCRIPTION": null, "DPP_ASSET_": 1900, "SPACE_GLOBAL_ID": "{9d2a69f9-7444-4820-a0a1-7aa810ecede3}" }, "geometry": { "type": "Point", "coordinates": [ -75.187749552533603, 39.990169327315797 ] } },
{ "type": "Feature", "properties": { "OBJECTID": 220, "ASSET_NAME": "Konrad Square", "SITE_NUMBE": 1, "PSPACETYPE": "Neighborhood Park", "CAPACITY": 100, "DSCRIPTION": "Use of entire neighborhood park for community events.", "DPP_ASSET_": 783, "SPACE_GLOBAL_ID": "{10a7a443-491d-4962-bf99-6e68074f9f59}" }, "geometry": { "type": "Point", "coordinates": [ -75.127934010058894, 39.979353573254102 ] } },
{ "type": "Feature", "properties": { "OBJECTID": 221, "ASSET_NAME": "Forbidden Drive Course North", "SITE_NUMBE": 1, "PSPACETYPE": "Course", "CAPACITY": 400, "DSCRIPTION": "5K Course from Harpers Meadown Shelter to Thomas Mill covered bridge and back.", "DPP_ASSET_": 1357, "SPACE_GLOBAL_ID": "{17650F35-D601-43F7-B5DA-FAAA83C7D965}" }, "geometry": { "type": "Point", "coordinates": [ -75.231969879362296, 40.082962104284 ] } },
{ "type": "Feature", "properties": { "OBJECTID": 222, "ASSET_NAME": "Memorial Hall 5K Course", "SITE_NUMBE": 1, "PSPACETYPE": "Course", "CAPACITY": 4000, "DSCRIPTION": "5K course that loops through West Fairmount Park. Races longer than 5K must start by 7:30am. 5K races must start by 8:30am.", "DPP_ASSET_": 1714, "SPACE_GLOBAL_ID": "{e70cba85-b230-47df-b242-d0b45e556200}" }, "geometry": { "type": "Point", "coordinates": [ -75.209600701317797, 39.978572433142403 ] } },
{ "type": "Feature", "properties": { "OBJECTID": 223, "ASSET_NAME": "Philadelphia Museum of Art Apron", "SITE_NUMBE": 1, "PSPACETYPE": "Park A Site", "CAPACITY": 32767, "DSCRIPTION": " ", "DPP_ASSET_": 3463, "SPACE_GLOBAL_ID": "{d8294ff9-68c8-44b1-b88b-ff570d8bfbc3}" }, "geometry": { "type": "Point", "coordinates": [ -75.179617573782295, 39.964671099360601 ] } },
{ "type": "Feature", "properties": { "OBJECTID": 224, "ASSET_NAME": "Glendenning Rock Garden", "SITE_NUMBE": 1, "PSPACETYPE": "Wedding venue", "CAPACITY": 50, "DSCRIPTION": null, "DPP_ASSET_": 3585, "SPACE_GLOBAL_ID": "{d2bd92d4-270b-4cff-bedd-28d659f38678}" }, "geometry": { "type": "Point", "coordinates": [ -75.191112011872093, 39.976508729728799 ] } },
{ "type": "Feature", "properties": { "OBJECTID": 225, "ASSET_NAME": "Azalea Garden", "SITE_NUMBE": 1, "PSPACETYPE": "Wedding Venue", "CAPACITY": 30, "DSCRIPTION": null, "DPP_ASSET_": 1713, "SPACE_GLOBAL_ID": "{c0d75290-eb90-439b-9bab-6ee856d82925}" }, "geometry": { "type": "Point", "coordinates": [ -75.183019340173104, 39.967883645729501 ] } },
{ "type": "Feature", "properties": { "OBJECTID": 226, "ASSET_NAME": "Cherry Alle in West Park", "SITE_NUMBE": 1, "PSPACETYPE": "Wedding Venue", "CAPACITY": 60, "DSCRIPTION": null, "DPP_ASSET_": 1714, "SPACE_GLOBAL_ID": "{1eb3fabe-bcf4-4fb0-9d3a-a0abf5e81532}" }, "geometry": { "type": "Point", "coordinates": [ -75.217388556229594, 39.982669208102898 ] } },
{ "type": "Feature", "properties": { "OBJECTID": 227, "ASSET_NAME": "Kelly Drive", "SITE_NUMBE": 1, "PSPACETYPE": "Route", "CAPACITY": 25000, "DSCRIPTION": null, "DPP_ASSET_": 1713, "SPACE_GLOBAL_ID": "{E2DFC47F-AB6C-4DEA-8BBE-2803D2EED09D}" }, "geometry": { "type": "Point", "coordinates": [ -75.201266294016193, 39.982171589598998 ] } },
{ "type": "Feature", "properties": { "OBJECTID": 228, "ASSET_NAME": "M.L.K. Drive", "SITE_NUMBE": 1, "PSPACETYPE": "Route", "CAPACITY": 32767, "DSCRIPTION": null, "DPP_ASSET_": 1714, "SPACE_GLOBAL_ID": "{307D6CA6-6D16-4657-9F24-BB62CA76C10F}" }, "geometry": { "type": "Point", "coordinates": [ -75.195762401753399, 39.976486593730399 ] } },
{ "type": "Feature", "properties": { "OBJECTID": 229, "ASSET_NAME": "Pennypack on the Delaware picnic pavilion (square)", "SITE_NUMBE": 5, "PSPACETYPE": "Picnic pavilion", "CAPACITY": 150, "DSCRIPTION": "Square pavilion with seating.", "DPP_ASSET_": 1631, "SPACE_GLOBAL_ID": "{e4c9d9a0-544a-4c1d-8e1b-51e4ff81a32d}" }, "geometry": { "type": "Point", "coordinates": [ -75.0121331989927, 40.027720013825203 ] } },
{ "type": "Feature", "properties": { "OBJECTID": 230, "ASSET_NAME": "Fitler Square", "SITE_NUMBE": 1, "PSPACETYPE": "Neighborhood Park", "CAPACITY": 500, "DSCRIPTION": null, "DPP_ASSET_": 2904, "SPACE_GLOBAL_ID": "{ADA087FE-E814-4461-A9FB-4C12B6127AF8}" }, "geometry": { "type": "Point", "coordinates": [ -75.179800647654602, 39.947614596843202 ] } },
{ "type": "Feature", "properties": { "OBJECTID": 231, "ASSET_NAME": "Mario Lanza Park", "SITE_NUMBE": 1, "PSPACETYPE": "Neighborhood Park", "CAPACITY": 100, "DSCRIPTION": null, "DPP_ASSET_": 47, "SPACE_GLOBAL_ID": "{046bb558-b2f4-446b-a4ca-7531875a00a6}" }, "geometry": { "type": "Point", "coordinates": [ -75.147295022380305, 39.937364465623503 ] } },
{ "type": "Feature", "properties": { "OBJECTID": 232, "ASSET_NAME": "Palumbo Park", "SITE_NUMBE": 1, "PSPACETYPE": "Neighborhood Park", "CAPACITY": 300, "DSCRIPTION": null, "DPP_ASSET_": 2, "SPACE_GLOBAL_ID": "{DD12D01A-F0AC-4E0F-A6F4-F32F5B8C3361}" }, "geometry": { "type": "Point", "coordinates": [ -75.1556008467428, 39.939271099702999 ] } },
{ "type": "Feature", "properties": { "OBJECTID": 233, "ASSET_NAME": "Morris Park", "SITE_NUMBE": 1, "PSPACETYPE": "Neighborhood Park", "CAPACITY": 150, "DSCRIPTION": null, "DPP_ASSET_": 1283, "SPACE_GLOBAL_ID": "{4d815869-2ca6-4a2f-834e-dd8308766939}" }, "geometry": { "type": "Point", "coordinates": [ -75.258360559405403, 39.977765613893098 ] } },
{ "type": "Feature", "properties": { "OBJECTID": 234, "ASSET_NAME": "Pennypack on the Delaware gazebo (round)", "SITE_NUMBE": 1, "PSPACETYPE": "Picnic pavilion", "CAPACITY": 150, "DSCRIPTION": "Round pavilion without seating.", "DPP_ASSET_": 1631, "SPACE_GLOBAL_ID": "{4B852C63-E952-47ED-AE4C-DA1E9ABE9ACA}" }, "geometry": { "type": "Point", "coordinates": [ -75.013504137581293, 40.026083931703397 ] } },
{ "type": "Feature", "properties": { "OBJECTID": 235, "ASSET_NAME": "Benjamin Franklin Parkway", "SITE_NUMBE": 1, "PSPACETYPE": "Route", "CAPACITY": 32767, "DSCRIPTION": null, "DPP_ASSET_": 1226, "SPACE_GLOBAL_ID": "{6A20D2C5-5AFA-4A3C-ACE7-BA1B6BEB7097}" }, "geometry": { "type": "Point", "coordinates": [ -75.176214461851302, 39.962097288275103 ] } }
]
}
