{
"type": "FeatureCollection",
"name": "PPR_Boat_Launches",
"crs": { "type": "name", "properties": { "name": "urn:ogc:def:crs:OGC:1.3:CRS84" } },
"features": [
{ "type": "Feature", "properties": { "OBJECTID": 1, "AMENITY_NAME": "Linden Avenue Boat Ramp", "PARENT_NAME": "Pleasant Hill Park", "ALIAS": "The River at Linden Ave", "RAMP": "Y", "DOCK": "N", "PARKING": "Y", "COMMENTS": "Unlimited Horsepower; Closed until further notice." }, "geometry": { "type": "Point", "coordinates": [ -74.992009722244006, 40.041053088655403 ] } },
{ "type": "Feature", "properties": { "OBJECTID": 2, "AMENITY_NAME": "East Park Canoe House Launch", "PARENT_NAME": "East Fairmount Park", "ALIAS": "Temple Boathouse Dock", "RAMP": "N", "DOCK": "Y", "PARKING": "Y", "COMMENTS": "Mainly for Kayaks & Canoes, several locations here " }, "geometry": { "type": "Point", "coordinates": [ -75.193891419067597, 39.993760417452201 ] } },
{ "type": "Feature", "properties": { "OBJECTID": 3, "AMENITY_NAME": "Walnut Street Dock", "PARENT_NAME": "Schuylkill Banks", "ALIAS": null, "RAMP": "N", "DOCK": "Y", "PARKING": "N", "COMMENTS": "This boat launch is only designed to accommodate non-motorized watercraft. Maintained by SRDC." }, "geometry": { "type": "Point", "coordinates": [ -75.181042869229103, 39.951845832323599 ] } },
{ "type": "Feature", "properties": { "OBJECTID": 4, "AMENITY_NAME": "Bartrams Garden Dock", "PARENT_NAME": "Bartrams Garden", "ALIAS": "Bartram's Garden Community Boathouse and Dock", "RAMP": "N", "DOCK": "Y", "PARKING": "Y", "COMMENTS": "Pedestrian and kayaks" }, "geometry": { "type": "Point", "coordinates": [ -75.208217829378398, 39.933488878911902 ] } },
{ "type": "Feature", "properties": { "OBJECTID": 5, "AMENITY_NAME": "Tugboat House Boat Launch", "PARENT_NAME": "West Fairmount Park", "ALIAS": "Tugboat House at Belmont Landing;Phila Rowing Program for the Disabled, Inc.;Philadelphia Adaptive Rowing", "RAMP": "N", "DOCK": "Y", "PARKING": "Y", "COMMENTS": "Private, Historic. It is only designed to accommodate non-motorized watercraft. " }, "geometry": { "type": "Point", "coordinates": [ -75.204111439282102, 39.980602487247701 ] } },
{ "type": "Feature", "properties": { "OBJECTID": 6, "AMENITY_NAME": "Boathouse Row Launch (Bachelors)", "PARENT_NAME": "East Fairmount Park", "ALIAS": "Bachelor's Barge Club", "RAMP": "Y", "DOCK": "Y", "PARKING": "N", "COMMENTS": "Private" }, "geometry": { "type": "Point", "coordinates": [ -75.186972882617795, 39.969188551139801 ] } },
{ "type": "Feature", "properties": { "OBJECTID": 7, "AMENITY_NAME": "Boathouse Row Launch (Lloyd Hall)", "PARENT_NAME": "East Fairmount Park", "ALIAS": "Wheel Fun", "RAMP": "Y", "DOCK": "Y", "PARKING": "Y", "COMMENTS": "Private. Off limits during regattas. Only designed to accommodate non-motorized watercraft." }, "geometry": { "type": "Point", "coordinates": [ -75.185785920916103, 39.968908201272797 ] } },
{ "type": "Feature", "properties": { "OBJECTID": 8, "AMENITY_NAME": "Frankford Boat Launch (North)", "PARENT_NAME": "Frankford Boat Launch", "ALIAS": "PA Fish & Boat;Frankford Arsenal Boat Launch", "RAMP": "Y", "DOCK": "Y", "PARKING": "Y", "COMMENTS": "Closed until further notice due to structural issues." }, "geometry": { "type": "Point", "coordinates": [ -75.055902458815893, 40.007363062610402 ] } },
{ "type": "Feature", "properties": { "OBJECTID": 9, "AMENITY_NAME": "Frankford Boat Launch (South)", "PARENT_NAME": "Frankford Boat Launch", "ALIAS": "PA Fish & Boat;Frankford Arsenal Boat Launch", "RAMP": "Y", "DOCK": "Y", "PARKING": "Y", "COMMENTS": "Closed until further notice due to structural issues." }, "geometry": { "type": "Point", "coordinates": [ -75.055982803005605, 40.007272886135702 ] } },
{ "type": "Feature", "properties": { "OBJECTID": 10, "AMENITY_NAME": "St Josephs Boathouse Launch (North)", "PARENT_NAME": "East Fairmount Park", "ALIAS": "St. Joseph's University Boathouse;Gillin Boathouse", "RAMP": "Y", "DOCK": "Y", "PARKING": "Y", "COMMENTS": "Private" }, "geometry": { "type": "Point", "coordinates": [ -75.195309330777405, 39.992629943394697 ] } },
{ "type": "Feature", "properties": { "OBJECTID": 11, "AMENITY_NAME": "Tacony Boat Launch", "PARENT_NAME": "Tacony Boat Launch", "ALIAS": "Princeton Ave Boat Launch", "RAMP": "Y", "DOCK": "N", "PARKING": "Y", "COMMENTS": "Free launch site for small motorized and non-motorized watercraft." }, "geometry": { "type": "Point", "coordinates": [ -75.032901733038798, 40.019888083743702 ] } },
{ "type": "Feature", "properties": { "OBJECTID": 12, "AMENITY_NAME": "East Park Canoe House Launch (North)", "PARENT_NAME": "East Fairmount Park", "ALIAS": "Kelly Dr Pier; Boy Scout Dock ", "RAMP": "N", "DOCK": "Y", "PARKING": "Y", "COMMENTS": "North of the East Park Canoe House just off the trail." }, "geometry": { "type": "Point", "coordinates": [ -75.193160923846804, 39.994261366426798 ] } },
{ "type": "Feature", "properties": { "OBJECTID": 13, "AMENITY_NAME": "St Josephs Boathouse Launch (South)", "PARENT_NAME": "East Fairmount Park", "ALIAS": "Kelly Dr Pier;Public Dock South of Gillin Boathouse", "RAMP": "N", "DOCK": "Y", "PARKING": "Y", "COMMENTS": "Publicly accessible boat launch" }, "geometry": { "type": "Point", "coordinates": [ -75.196013582373993, 39.992011775836197 ] } },
{ "type": "Feature", "properties": { "OBJECTID": 14, "AMENITY_NAME": "MLK Dr Launch (Black Rd)", "PARENT_NAME": "West Fairmount Park", "ALIAS": "Dragon Boat Dock ", "RAMP": "N", "DOCK": "Y", "PARKING": "Y", "COMMENTS": null }, "geometry": { "type": "Point", "coordinates": [ -75.204797454603195, 39.982606877200197 ] } },
{ "type": "Feature", "properties": { "OBJECTID": 15, "AMENITY_NAME": "Boathouse Row Launch (Crescent)", "PARENT_NAME": "East Fairmount Park", "ALIAS": "Crescent Boat Club", "RAMP": "Y", "DOCK": "Y", "PARKING": "N", "COMMENTS": "Private" }, "geometry": { "type": "Point", "coordinates": [ -75.186546123854697, 39.969127664827496 ] } },
{ "type": "Feature", "properties": { "OBJECTID": 16, "AMENITY_NAME": "Boathouse Row Launch (Fairmount Rowing)", "PARENT_NAME": "East Fairmount Park", "ALIAS": "Fairmount Rowing Association", "RAMP": "Y", "DOCK": "Y", "PARKING": "N", "COMMENTS": "Private" }, "geometry": { "type": "Point", "coordinates": [ -75.186050641048297, 39.969018289686701 ] } },
{ "type": "Feature", "properties": { "OBJECTID": 17, "AMENITY_NAME": "Boathouse Row Launch (Malta)", "PARENT_NAME": "East Fairmount Park", "ALIAS": "Malta Boat Club", "RAMP": "Y", "DOCK": "Y", "PARKING": "N", "COMMENTS": "Private" }, "geometry": { "type": "Point", "coordinates": [ -75.187841952623501, 39.969251976310098 ] } },
{ "type": "Feature", "properties": { "OBJECTID": 18, "AMENITY_NAME": "Boathouse Row Launch (Penn Athletic)", "PARENT_NAME": "East Fairmount Park", "ALIAS": "Penn Athletic Club Rowing Association", "RAMP": "Y", "DOCK": "Y", "PARKING": "N", "COMMENTS": "Private" }, "geometry": { "type": "Point", "coordinates": [ -75.1887031505035, 39.969372442205 ] } },
{ "type": "Feature", "properties": { "OBJECTID": 19, "AMENITY_NAME": "Boathouse Row Launch (Philadelphia Girls)", "PARENT_NAME": "East Fairmount Park", "ALIAS": "Philadelphia Girls Rowing Club", "RAMP": "Y", "DOCK": "Y", "PARKING": "N", "COMMENTS": "Private" }, "geometry": { "type": "Point", "coordinates": [ -75.189291615338703, 39.969494151420797 ] } },
{ "type": "Feature", "properties": { "OBJECTID": 20, "AMENITY_NAME": "Boathouse Row Launch (Schuylkill Navy)", "PARENT_NAME": "East Fairmount Park", "ALIAS": "Schuylkill Navy Headquarters", "RAMP": "Y", "DOCK": "Y", "PARKING": "N", "COMMENTS": "Private" }, "geometry": { "type": "Point", "coordinates": [ -75.186415211288207, 39.969110067137301 ] } },
{ "type": "Feature", "properties": { "OBJECTID": 21, "AMENITY_NAME": "Boathouse Row Launch (Undine)", "PARENT_NAME": "East Fairmount Park", "ALIAS": "Undine Barge Club", "RAMP": "Y", "DOCK": "Y", "PARKING": "N", "COMMENTS": "Private" }, "geometry": { "type": "Point", "coordinates": [ -75.188970309048699, 39.96941802 ] } },
{ "type": "Feature", "properties": { "OBJECTID": 22, "AMENITY_NAME": "Boathouse Row Launch (University Barge)", "PARENT_NAME": "East Fairmount Park", "ALIAS": "University Barge Club", "RAMP": "Y", "DOCK": "Y", "PARKING": "N", "COMMENTS": "Private" }, "geometry": { "type": "Point", "coordinates": [ -75.187434269994597, 39.969241405451697 ] } },
{ "type": "Feature", "properties": { "OBJECTID": 23, "AMENITY_NAME": "Boathouse Row Launch (Vesper)", "PARENT_NAME": "East Fairmount Park", "ALIAS": "Vesper Boat Club", "RAMP": "Y", "DOCK": "Y", "PARKING": "N", "COMMENTS": "Private" }, "geometry": { "type": "Point", "coordinates": [ -75.188034358893603, 39.969307625457802 ] } },
{ "type": "Feature", "properties": { "OBJECTID": 24, "AMENITY_NAME": "East Park Canoe House Ramp", "PARENT_NAME": "East Fairmount Park", "ALIAS": null, "RAMP": "Y", "DOCK": "N", "PARKING": "Y", "COMMENTS": "Ramp Location, dock/pier is locate to the north of here" }, "geometry": { "type": "Point", "coordinates": [ -75.194367147425197, 39.993226046479997 ] } }
]
}
